$GNRMC,163632.80,A,4220.2381755,N,07105.2226240,W,0.05,11.57,101023,,,D*60
$GNGGA,163632.80,4220.2381755,N,07105.2226240,W,5,09,1.4,15.151,M,-28.727,M,0.8,0061*5C
$GPGSA,A,3,10,18,23,24,,,,,,,,,2.8,1.4,2.4*34
$GLGSA,A,3,65,72,75,,,,,,,,,,2.8,1.4,2.4*23
$GAGSA,A,3,07,13,,,,,,,,,,,2.8,1.4,2.4*2F
$GBGSA,A,3,,,,,,,,,,,,,2.8,1.4,2.4*29
$GPGSV,1,1,04,10,49,311,40,18,38,193,46,23,82,042,45,24,60,076,42*76
$GLGSV,1,1,03,65,60,007,36,72,24,072,41,75,40,109,44,,,,*5C
$GAGSV,1,1,02,07,76,000,43,13,20,178,38,,,,,,,,*6E
$GNVTG,11.57,T,,M,0.05,N,0.10,K,D*10
$GNGST,163632.80,2.976,,,,0.223,0.170,0.449*6A
$GNZDA,163632.80,10,10,2023,00,00*70
$GNRMC,163633.80,A,4220.2382186,N,07105.2226016,W,0.07,11.57,101023,,,D*69
$GNGGA,163633.80,4220.2382186,N,07105.2226016,W,5,09,1.4,15.136,M,-28.727,M,0.8,0061*56
$GPGSA,A,3,10,18,23,24,,,,,,,,,2.8,1.4,2.4*34
$GLGSA,A,3,65,72,75,,,,,,,,,,2.8,1.4,2.4*23
$GAGSA,A,3,07,13,,,,,,,,,,,2.8,1.4,2.4*2F
$GBGSA,A,3,,,,,,,,,,,,,2.8,1.4,2.4*29
$GPGSV,1,1,04,10,49,311,40,18,38,193,46,23,82,042,45,24,60,076,42*76
$GLGSV,1,1,03,65,60,007,39,72,24,072,41,75,40,109,44,,,,*53
$GAGSV,1,1,02,07,76,000,43,13,20,178,37,,,,,,,,*61
$GNVTG,11.57,T,,M,0.07,N,0.13,K,D*11
$GNGST,163633.80,2.925,,,,0.220,0.169,0.445*6A
$GNZDA,163633.80,10,10,2023,00,00*71
$GNRMC,163634.80,A,4220.2382593,N,07105.2225822,W,0.04,11.57,101023,,,D*61
$GNGGA,163634.80,4220.2382593,N,07105.2225822,W,5,09,1.4,15.119,M,-28.727,M,0.8,0061*50
$GPGSA,A,3,10,18,23,24,,,,,,,,,2.8,1.4,2.4*34
$GLGSA,A,3,65,72,75,,,,,,,,,,2.8,1.4,2.4*23
$GAGSA,A,3,07,13,,,,,,,,,,,2.8,1.4,2.4*2F
$GBGSA,A,3,,,,,,,,,,,,,2.8,1.4,2.4*29
$GPGSV,1,1,04,10,49,311,41,18,38,193,46,23,82,042,45,24,60,076,43*76
$GLGSV,1,1,03,65,60,007,38,72,24,072,41,75,40,109,43,,,,*55
$GAGSV,1,1,02,07,76,000,43,13,20,178,37,,,,,,,,*61
$GNVTG,11.57,T,,M,0.04,N,0.07,K,D*17
$GNGST,163634.80,2.834,,,,0.216,0.167,0.441*63
$GNZDA,163634.80,10,10,2023,00,00*76
$GNRMC,163635.80,A,4220.2382841,N,07105.2225589,W,0.01,11.57,101023,,,D*6B
$GNGGA,163635.80,4220.2382841,N,07105.2225589,W,5,09,1.4,15.113,M,-28.727,M,0.8,0061*55
$GPGSA,A,3,10,18,23,24,,,,,,,,,2.8,1.4,2.4*34
$GLGSA,A,3,65,72,75,,,,,,,,,,2.8,1.4,2.4*23
$GAGSA,A,3,07,13,,,,,,,,,,,2.8,1.4,2.4*2F
$GBGSA,A,3,,,,,,,,,,,,,2.8,1.4,2.4*29
$GPGSV,1,1,04,10,49,311,36,18,38,193,44,23,82,042,45,24,60,076,42*75
$GLGSV,1,1,03,65,60,007,39,72,24,072,42,75,40,109,45,,,,*51
$GAGSV,1,1,02,07,76,000,43,13,20,178,37,,,,,,,,*61
$GNVTG,11.57,T,,M,0.01,N,0.02,K,D*17
$GNGST,163635.80,2.929,,,,0.212,0.165,0.437*68
$GNZDA,163635.80,10,10,2023,00,00*77
$GNRMC,163636.80,A,4220.2383162,N,07105.2225433,W,0.09,11.57,101023,,,D*69
$GNGGA,163636.80,4220.2383162,N,07105.2225433,W,5,09,1.4,15.052,M,-28.727,M,0.8,0061*5B
$GPGSA,A,3,10,18,23,24,,,,,,,,,2.8,1.4,2.4*34
$GLGSA,A,3,65,72,75,,,,,,,,,,2.8,1.4,2.4*23
$GAGSA,A,3,07,13,,,,,,,,,,,2.8,1.4,2.4*2F
$GBGSA,A,3,,,,,,,,,,,,,2.8,1.4,2.4*29
$GPGSV,1,1,04,10,49,311,38,18,38,193,45,23,82,042,45,24,60,076,42*7A
$GLGSV,1,1,03,65,60,007,39,72,24,072,41,75,40,109,43,,,,*54
$GAGSV,1,1,02,07,76,000,43,13,20,178,38,,,,,,,,*6E
$GNVTG,11.57,T,,M,0.09,N,0.16,K,D*1A
$GNGST,163636.80,2.986,,,,0.209,0.163,0.433*66
$GNZDA,163636.80,10,10,2023,00,00*74
$GNRMC,163637.80,A,4220.2383450,N,07105.2225245,W,0.02,11.57,101023,,,D*60
$GNGGA,163637.80,4220.2383450,N,07105.2225245,W,5,09,1.4,15.006,M,-28.727,M,0.8,0061*58
$GPGSA,A,3,10,18,23,24,,,,,,,,,2.8,1.4,2.4*34
$GLGSA,A,3,65,72,75,,,,,,,,,,2.8,1.4,2.4*23
$GAGSA,A,3,07,13,,,,,,,,,,,2.8,1.4,2.4*2F
$GBGSA,A,3,,,,,,,,,,,,,2.8,1.4,2.4*29
$GPGSV,1,1,04,10,49,311,39,18,38,193,44,23,82,043,45,24,60,076,42*7B
$GLGSV,1,1,03,65,60,007,37,72,24,072,41,75,40,108,42,,,,*5A
$GAGSV,1,1,02,07,76,000,43,13,20,178,37,,,,,,,,*61
$GNVTG,11.57,T,,M,0.02,N,0.04,K,D*12
$GNGST,163637.80,3.242,,,,0.206,0.162,0.429*60
$GNZDA,163637.80,10,10,2023,00,00*75
$GNRMC,163638.80,A,4220.2383851,N,07105.2225406,W,0.08,11.57,101023,,,D*69
$GNGGA,163638.80,4220.2383851,N,07105.2225406,W,5,10,1.2,14.904,M,-28.727,M,0.8,0061*5F
$GPGSA,A,3,10,18,23,24,,,,,,,,,2.3,1.2,2.0*3D
$GLGSA,A,3,65,72,75,81,,,,,,,,,2.3,1.2,2.0*23
$GAGSA,A,3,07,13,,,,,,,,,,,2.3,1.2,2.0*26
$GBGSA,A,3,,,,,,,,,,,,,2.3,1.2,2.0*20
$GPGSV,1,1,04,10,49,311,42,18,38,193,44,23,82,043,46,24,60,076,42*74
$GLGSV,1,1,04,65,60,007,38,72,24,072,41,75,40,108,42,81,35,301,35*69
$GAGSV,1,1,02,07,76,000,43,13,20,178,37,,,,,,,,*61
$GNVTG,11.57,T,,M,0.08,N,0.14,K,D*19
$GNGST,163638.80,5.830,,,,0.202,0.160,0.425*6C
$GNZDA,163638.80,10,10,2023,00,00*7A
$GNRMC,163639.80,A,4220.2384093,N,07105.2225501,W,0.06,11.57,101023,,,D*61
$GNGGA,163639.80,4220.2384093,N,07105.2225501,W,5,10,1.2,14.812,M,-28.727,M,0.8,0061*5F
$GPGSA,A,3,10,18,23,24,,,,,,,,,2.3,1.2,2.0*3D
$GLGSA,A,3,65,72,75,81,,,,,,,,,2.3,1.2,2.0*23
$GAGSA,A,3,07,13,,,,,,,,,,,2.3,1.2,2.0*26
$GBGSA,A,3,,,,,,,,,,,,,2.3,1.2,2.0*20
$GPGSV,1,1,04,10,49,311,44,18,38,193,44,23,82,043,46,24,60,076,42*72
$GLGSV,1,1,04,65,60,007,38,72,24,072,40,75,40,108,41,81,35,301,38*66
$GAGSV,1,1,02,07,76,000,43,13,20,178,36,,,,,,,,*60
$GNVTG,11.57,T,,M,0.06,N,0.11,K,D*12
$GNGST,163639.80,3.632,,,,0.199,0.158,0.421*69
$GNZDA,163639.80,10,10,2023,00,00*7B
$GNRMC,163640.80,A,4220.2384163,N,07105.2225397,W,0.05,11.57,101023,,,D*6B
$GNGGA,163640.80,4220.2384163,N,07105.2225397,W,5,10,1.2,14.774,M,-28.727,M,0.8,0061*59
$GPGSA,A,3,10,18,23,24,,,,,,,,,2.3,1.2,2.0*3D
$GLGSA,A,3,65,72,75,81,,,,,,,,,2.3,1.2,2.0*23
$GAGSA,A,3,07,13,,,,,,,,,,,2.3,1.2,2.0*26
$GBGSA,A,3,,,,,,,,,,,,,2.3,1.2,2.0*20
$GPGSV,1,1,04,10,49,311,43,18,38,193,43,23,82,043,45,24,60,076,42*71
$GLGSV,1,1,04,65,60,007,38,72,24,072,40,75,40,108,43,81,35,301,40*6B
$GAGSV,1,1,02,07,76,000,42,13,20,178,35,,,,,,,,*62
$GNVTG,11.57,T,,M,0.05,N,0.09,K,D*18
$GNGST,163640.80,3.469,,,,0.196,0.156,0.418*60
$GNZDA,163640.80,10,10,2023,00,00*75
$GNRMC,163641.80,A,4220.2384158,N,07105.2225171,W,0.04,11.57,101023,,,D*69
$GNGGA,163641.80,4220.2384158,N,07105.2225171,W,5,09,1.2,14.732,M,-28.727,M,0.8,0061*50
$GPGSA,A,3,10,18,23,24,,,,,,,,,2.3,1.2,2.0*3D
$GLGSA,A,3,65,72,75,81,,,,,,,,,2.3,1.2,2.0*23
$GAGSA,A,3,07,,,,,,,,,,,,2.3,1.2,2.0*24
$GBGSA,A,3,,,,,,,,,,,,,2.3,1.2,2.0*20
$GPGSV,1,1,04,10,49,311,43,18,38,193,43,23,82,043,45,24,60,076,42*71
$GLGSV,1,1,04,65,60,007,38,72,24,072,41,75,40,108,42,81,35,301,39*65
$GAGSV,1,1,01,07,76,000,42,,,,,,,,,,,,*59
$GNVTG,11.57,T,,M,0.04,N,0.07,K,D*17
$GNGST,163641.80,3.632,,,,0.193,0.154,0.414*66
$GNZDA,163641.80,10,10,2023,00,00*74
$GNRMC,163642.80,A,4220.2384173,N,07105.2224928,W,0.05,11.57,101023,,,D*67
$GNGGA,163642.80,4220.2384173,N,07105.2224928,W,5,09,1.2,14.678,M,-28.727,M,0.8,0061*50
$GPGSA,A,3,10,18,23,24,,,,,,,,,2.3,1.2,2.0*3D
$GLGSA,A,3,65,72,75,81,,,,,,,,,2.3,1.2,2.0*23
$GAGSA,A,3,07,,,,,,,,,,,,2.3,1.2,2.0*24
$GBGSA,A,3,,,,,,,,,,,,,2.3,1.2,2.0*20
$GPGSV,1,1,04,10,49,311,43,18,38,193,44,23,82,043,45,24,60,076,42*76
$GLGSV,1,1,04,65,60,007,38,72,24,072,40,75,40,108,42,81,35,301,39*64
$GAGSV,1,1,01,07,76,000,42,,,,,,,,,,,,*59
$GNVTG,11.57,T,,M,0.05,N,0.10,K,D*10
$GNGST,163642.80,3.677,,,,0.190,0.152,0.410*65
$GNZDA,163642.80,10,10,2023,00,00*77
$GNRMC,163643.80,A,4220.2384128,N,07105.2224623,W,0.02,11.57,101023,,,D*6B
$GNGGA,163643.80,4220.2384128,N,07105.2224623,W,5,09,1.2,14.646,M,-28.727,M,0.8,0061*56
$GPGSA,A,3,10,18,23,24,,,,,,,,,2.3,1.2,2.0*3D
$GLGSA,A,3,65,72,75,81,,,,,,,,,2.3,1.2,2.0*23
$GAGSA,A,3,07,,,,,,,,,,,,2.3,1.2,2.0*24
$GBGSA,A,3,,,,,,,,,,,,,2.3,1.2,2.0*20
$GPGSV,1,1,04,10,49,311,42,18,38,193,43,23,82,043,45,24,60,076,42*70
$GLGSV,1,1,04,65,60,007,38,72,24,072,40,75,40,108,42,81,35,301,40*6A
$GAGSV,1,1,01,07,76,001,42,,,,,,,,,,,,*58
$GNVTG,11.57,T,,M,0.02,N,0.03,K,D*15
$GNGST,163643.80,3.826,,,,0.188,0.150,0.406*62
$GNZDA,163643.80,10,10,2023,00,00*76
$GNRMC,163644.80,A,4220.2384092,N,07105.2224274,W,0.04,11.57,101023,,,D*6C
$GNGGA,163644.80,4220.2384092,N,07105.2224274,W,5,09,1.2,14.574,M,-28.727,M,0.8,0061*55
$GPGSA,A,3,10,18,23,24,,,,,,,,,2.3,1.2,2.0*3D
$GLGSA,A,3,65,72,75,81,,,,,,,,,2.3,1.2,2.0*23
$GAGSA,A,3,07,,,,,,,,,,,,2.3,1.2,2.0*24
$GBGSA,A,3,,,,,,,,,,,,,2.3,1.2,2.0*20
$GPGSV,1,1,04,10,49,311,42,18,38,193,43,23,82,043,45,24,60,076,42*70
$GLGSV,1,1,04,65,60,007,38,72,24,072,40,75,40,108,42,81,35,301,40*6A
$GAGSV,1,1,01,07,76,001,42,,,,,,,,,,,,*58
$GNVTG,11.57,T,,M,0.04,N,0.08,K,D*18
$GNGST,163644.80,3.963,,,,0.185,0.148,0.402*65
$GNZDA,163644.80,10,10,2023,00,00*71
$GNRMC,163645.80,A,4220.2383990,N,07105.2223886,W,0.03,11.57,101023,,,D*66
$GNGGA,163645.80,4220.2383990,N,07105.2223886,W,5,09,1.2,14.506,M,-28.727,M,0.8,0061*5D
$GPGSA,A,3,10,18,23,24,,,,,,,,,2.3,1.2,2.0*3D
$GLGSA,A,3,65,72,75,81,,,,,,,,,2.3,1.2,2.0*23
$GAGSA,A,3,07,,,,,,,,,,,,2.3,1.2,2.0*24
$GBGSA,A,3,,,,,,,,,,,,,2.3,1.2,2.0*20
$GPGSV,1,1,04,10,49,311,43,18,38,193,43,23,82,043,45,24,60,076,42*71
$GLGSV,1,1,04,65,60,007,38,72,24,072,40,75,40,108,41,81,35,301,40*69
$GAGSV,1,1,01,07,76,001,42,,,,,,,,,,,,*58
$GNVTG,11.57,T,,M,0.03,N,0.06,K,D*11
$GNGST,163645.80,3.907,,,,0.182,0.147,0.398*6A
$GNZDA,163645.80,10,10,2023,00,00*70
$GNRMC,163646.80,A,4220.2383876,N,07105.2223406,W,0.10,11.57,101023,,,D*6A
$GNGGA,163646.80,4220.2383876,N,07105.2223406,W,5,09,1.2,14.426,M,-28.727,M,1.8,0061*51
$GPGSA,A,3,10,18,23,24,,,,,,,,,2.3,1.2,2.0*3D
$GLGSA,A,3,65,72,75,81,,,,,,,,,2.3,1.2,2.0*23
$GAGSA,A,3,07,,,,,,,,,,,,2.3,1.2,2.0*24
$GBGSA,A,3,,,,,,,,,,,,,2.3,1.2,2.0*20
$GPGSV,1,1,04,10,49,311,44,18,38,193,43,23,82,043,45,24,60,076,42*76
$GLGSV,1,1,04,65,60,007,38,72,24,072,40,75,40,108,42,81,35,301,40*6A
$GAGSV,1,1,01,07,76,001,42,,,,,,,,,,,,*58
$GNVTG,11.57,T,,M,0.10,N,0.19,K,D*1D
$GNGST,163646.80,3.773,,,,0.180,0.145,0.394*68
$GNZDA,163646.80,10,10,2023,00,00*73
$GNRMC,163647.80,A,4220.2384262,N,07105.2222841,W,0.06,11.57,101023,,,D*6A
$GNGGA,163647.80,4220.2384262,N,07105.2222841,W,4,09,1.2,14.202,M,-28.727,M,0.8,0061*56
$GPGSA,A,3,10,18,23,24,,,,,,,,,2.3,1.2,2.0*3D
$GLGSA,A,3,65,72,75,81,,,,,,,,,2.3,1.2,2.0*23
$GAGSA,A,3,07,,,,,,,,,,,,2.3,1.2,2.0*24
$GBGSA,A,3,,,,,,,,,,,,,2.3,1.2,2.0*20
$GPGSV,1,1,04,10,49,311,43,18,38,193,43,23,82,043,45,24,60,076,43*70
$GLGSV,1,1,04,65,60,007,38,72,24,072,39,75,40,108,41,81,35,301,39*69
$GAGSV,1,1,01,07,76,001,42,,,,,,,,,,,,*58
$GNVTG,11.57,T,,M,0.06,N,0.12,K,D*11
$GNGST,163647.80,3.607,,,,0.010,0.008,0.025*62
$GNZDA,163647.80,10,10,2023,00,00*72
$GNRMC,163648.80,A,4220.2383710,N,07105.2222692,W,0.04,11.57,101023,,,D*60
$GNGGA,163648.80,4220.2383710,N,07105.2222692,W,5,09,1.2,14.254,M,-28.727,M,0.8,0061*5C
$GPGSA,A,3,10,18,23,24,,,,,,,,,2.3,1.2,2.0*3D
$GLGSA,A,3,65,72,75,81,,,,,,,,,2.3,1.2,2.0*23
$GAGSA,A,3,07,,,,,,,,,,,,2.3,1.2,2.0*24
$GBGSA,A,3,,,,,,,,,,,,,2.3,1.2,2.0*20
$GPGSV,1,1,04,10,49,311,43,18,38,193,43,23,82,043,45,24,60,076,43*70
$GLGSV,1,1,04,65,60,007,38,72,24,072,40,75,40,108,41,81,35,301,39*67
$GAGSV,1,1,01,07,76,001,42,,,,,,,,,,,,*58
$GNVTG,11.57,T,,M,0.04,N,0.07,K,D*17
$GNGST,163648.80,3.643,,,,0.175,0.142,0.386*6A
$GNZDA,163648.80,10,10,2023,00,00*7D
$GNRMC,163649.80,A,4220.2383546,N,07105.2222368,W,0.06,11.57,101023,,,D*62
$GNGGA,163649.80,4220.2383546,N,07105.2222368,W,5,09,1.2,14.166,M,-28.727,M,0.8,0061*5E
$GPGSA,A,3,10,18,23,24,,,,,,,,,2.3,1.2,2.0*3D
$GLGSA,A,3,65,72,75,81,,,,,,,,,2.3,1.2,2.0*23
$GAGSA,A,3,07,,,,,,,,,,,,2.3,1.2,2.0*24
$GBGSA,A,3,,,,,,,,,,,,,2.3,1.2,2.0*20
$GPGSV,1,1,04,10,49,311,44,18,38,193,43,23,82,043,45,24,60,076,43*77
$GLGSV,1,1,04,65,60,007,39,72,24,072,39,75,40,108,41,81,35,301,39*68
$GAGSV,1,1,01,07,76,001,42,,,,,,,,,,,,*58
$GNVTG,11.57,T,,M,0.06,N,0.10,K,D*13
$GNGST,163649.80,3.584,,,,0.172,0.141,0.382*63
$GNZDA,163649.80,10,10,2023,00,00*7C
$GNRMC,163650.80,A,4220.2383345,N,07105.2222123,W,0.02,11.57,101023,,,D*66
$GNGGA,163650.80,4220.2383345,N,07105.2222123,W,5,09,1.2,14.070,M,-28.727,M,0.8,0061*58
$GPGSA,A,3,10,18,23,24,,,,,,,,,2.3,1.2,2.0*3D
$GLGSA,A,3,65,72,75,81,,,,,,,,,2.3,1.2,2.0*23
$GAGSA,A,3,07,,,,,,,,,,,,2.3,1.2,2.0*24
$GBGSA,A,3,,,,,,,,,,,,,2.3,1.2,2.0*20
$GPGSV,1,1,04,10,49,311,44,18,38,193,43,23,82,043,45,24,60,076,43*77
$GLGSV,1,1,04,65,60,007,39,72,24,072,39,75,40,108,42,81,35,301,39*6B
$GAGSV,1,1,01,07,76,001,42,,,,,,,,,,,,*58
$GNVTG,11.57,T,,M,0.02,N,0.03,K,D*15
$GNGST,163650.80,3.417,,,,0.170,0.139,0.378*68
$GNZDA,163650.80,10,10,2023,00,00*74
$GNRMC,163651.80,A,4220.2383165,N,07105.2221867,W,0.00,11.57,101023,,,D*6F
$GNGGA,163651.80,4220.2383165,N,07105.2221867,W,5,09,1.2,13.938,M,-28.727,M,0.8,0061*51
$GPGSA,A,3,10,18,23,24,,,,,,,,,2.3,1.2,2.0*3D
$GLGSA,A,3,65,72,75,81,,,,,,,,,2.3,1.2,2.0*23
$GAGSA,A,3,07,,,,,,,,,,,,2.3,1.2,2.0*24
$GBGSA,A,3,,,,,,,,,,,,,2.3,1.2,2.0*20
$GPGSV,1,1,04,10,49,311,44,18,38,193,43,23,82,043,46,24,60,076,43*74
$GLGSV,1,1,04,65,60,007,38,72,24,072,38,75,40,108,42,81,35,301,40*65
$GAGSV,1,1,01,07,76,001,42,,,,,,,,,,,,*58
$GNVTG,11.57,T,,M,0.00,N,0.01,K,D*15
$GNGST,163651.80,3.466,,,,0.167,0.138,0.374*64
$GNZDA,163651.80,10,10,2023,00,00*75
$GNRMC,163652.80,A,4220.2382974,N,07105.2221635,W,0.04,11.57,101023,,,D*68
$GNGGA,163652.80,4220.2382974,N,07105.2221635,W,5,09,1.2,13.806,M,-28.727,M,0.8,0061*5E
$GPGSA,A,3,10,18,23,24,,,,,,,,,2.3,1.2,2.0*3D
$GLGSA,A,3,65,72,75,81,,,,,,,,,2.3,1.2,2.0*23
$GAGSA,A,3,07,,,,,,,,,,,,2.3,1.2,2.0*24
$GBGSA,A,3,,,,,,,,,,,,,2.3,1.2,2.0*20
$GPGSV,1,1,04,10,49,311,43,18,38,193,42,23,82,044,45,24,60,076,43*76
$GLGSV,1,1,04,65,60,007,38,72,24,072,38,75,40,108,42,81,35,300,40*64
$GAGSV,1,1,01,07,76,001,42,,,,,,,,,,,,*58
$GNVTG,11.57,T,,M,0.04,N,0.07,K,D*17
$GNGST,163652.80,3.372,,,,0.165,0.136,0.369*65
$GNZDA,163652.80,10,10,2023,00,00*76
$GNRMC,163653.80,A,4220.2382752,N,07105.2221355,W,0.08,11.57,101023,,,D*6C
$GNGGA,163653.80,4220.2382752,N,07105.2221355,W,5,09,1.2,13.659,M,-28.727,M,0.8,0061*52
$GPGSA,A,3,10,18,23,24,,,,,,,,,2.3,1.2,2.0*3D
$GLGSA,A,3,65,72,75,81,,,,,,,,,2.3,1.2,2.0*23
$GAGSA,A,3,07,,,,,,,,,,,,2.3,1.2,2.0*24
$GBGSA,A,3,,,,,,,,,,,,,2.3,1.2,2.0*20
$GPGSV,1,1,04,10,49,311,43,18,38,193,42,23,82,044,45,24,60,076,43*76
$GLGSV,1,1,04,65,60,007,38,72,24,072,37,75,40,108,42,81,35,300,40*6B
$GAGSV,1,1,01,07,76,001,42,,,,,,,,,,,,*58
$GNVTG,11.57,T,,M,0.08,N,0.15,K,D*18
$GNGST,163653.80,3.533,,,,0.163,0.135,0.365*6E
$GNZDA,163653.80,10,10,2023,00,00*77
$GNRMC,163654.80,A,4220.2382556,N,07105.2221049,W,0.10,11.57,101023,,,D*6A
$GNGGA,163654.80,4220.2382556,N,07105.2221049,W,5,09,1.2,13.460,M,-28.727,M,0.8,0061*55
$GPGSA,A,3,10,18,23,24,,,,,,,,,2.3,1.2,2.0*3D
$GLGSA,A,3,65,72,75,81,,,,,,,,,2.3,1.2,2.0*23
$GAGSA,A,3,07,,,,,,,,,,,,2.3,1.2,2.0*24
$GBGSA,A,3,,,,,,,,,,,,,2.3,1.2,2.0*20
$GPGSV,1,1,04,10,49,311,43,18,38,193,40,23,82,044,45,24,60,076,43*74
$GLGSV,1,1,04,65,60,008,39,72,24,072,39,75,40,108,43,81,35,300,42*68
$GAGSV,1,1,01,07,76,001,42,,,,,,,,,,,,*58
$GNVTG,11.57,T,,M,0.10,N,0.18,K,D*1C
$GNGST,163654.80,3.701,,,,0.160,0.134,0.360*6D
$GNZDA,163654.80,10,10,2023,00,00*70
$GNRMC,163655.80,A,4220.2382226,N,07105.2220758,W,0.12,11.57,101023,,,D*6F
$GNGGA,163655.80,4220.2382226,N,07105.2220758,W,5,09,1.2,13.268,M,-28.727,M,0.8,0061*5C
$GPGSA,A,3,10,18,23,24,,,,,,,,,2.3,1.2,2.0*3D
$GLGSA,A,3,65,72,75,81,,,,,,,,,2.3,1.2,2.0*23
$GAGSA,A,3,07,,,,,,,,,,,,2.3,1.2,2.0*24
$GBGSA,A,3,,,,,,,,,,,,,2.3,1.2,2.0*20
$GPGSV,1,1,04,10,49,311,43,18,38,193,40,23,82,044,45,24,60,076,43*74
$GLGSV,1,1,04,65,60,008,38,72,24,072,38,75,40,108,42,81,35,300,42*69
$GAGSV,1,1,01,07,76,001,42,,,,,,,,,,,,*58
$GNVTG,11.57,T,,M,0.12,N,0.22,K,D*17
$GNGST,163655.80,3.749,,,,0.158,0.133,0.356*69
$GNZDA,163655.80,10,10,2023,00,00*71
$GNRMC,163656.80,A,4220.2381076,N,07105.2221467,W,0.04,11.57,101023,,,D*61
$GNGGA,163656.80,4220.2381076,N,07105.2221467,W,5,10,1.1,13.467,M,-28.727,M,0.8,0061*57
$GPGSA,A,3,10,15,18,23,24,,,,,,,,2.3,1.1,2.0*3A
$GLGSA,A,3,65,72,75,81,,,,,,,,,2.3,1.1,2.0*20
$GAGSA,A,3,07,,,,,,,,,,,,2.3,1.1,2.0*27
$GBGSA,A,3,,,,,,,,,,,,,2.3,1.1,2.0*23
$GPGSV,2,1,05,10,49,311,44,15,32,068,35,18,38,193,40,23,82,044,45*7A
$GPGSV,2,2,05,24,60,076,43,,,,,,,,,,,,*4A
$GLGSV,1,1,04,65,60,008,36,72,24,072,37,75,40,108,42,81,35,300,41*6B
$GAGSV,1,1,01,07,76,001,42,,,,,,,,,,,,*58
$GNVTG,11.57,T,,M,0.04,N,0.08,K,D*18
$GNGST,163656.80,5.325,,,,0.155,0.131,0.349*63
$GNZDA,163656.80,10,10,2023,00,00*72
$GNRMC,163657.80,A,4220.2379981,N,07105.2222029,W,0.03,11.57,101023,,,D*6C
$GNGGA,163657.80,4220.2379981,N,07105.2222029,W,5,10,1.1,13.578,M,-28.727,M,0.8,0061*52
$GPGSA,A,3,10,15,18,23,24,,,,,,,,2.3,1.1,2.0*3A
$GLGSA,A,3,65,72,75,81,,,,,,,,,2.3,1.1,2.0*20
$GAGSA,A,3,07,,,,,,,,,,,,2.3,1.1,2.0*27
$GBGSA,A,3,,,,,,,,,,,,,2.3,1.1,2.0*23
$GPGSV,2,1,05,10,49,311,45,15,32,068,36,18,38,193,38,23,82,044,45*77
$GPGSV,2,2,05,24,60,076,43,,,,,,,,,,,,*4A
$GLGSV,1,1,04,65,60,008,36,72,24,072,36,75,40,108,41,81,35,300,40*68
$GAGSV,1,1,01,07,76,001,42,,,,,,,,,,,,*58
$GNVTG,11.57,T,,M,0.03,N,0.06,K,D*11
$GNGST,163657.80,5.357,,,,0.153,0.129,0.343*62
$GNZDA,163657.80,10,10,2023,00,00*73
$GNRMC,163658.80,A,4220.2378841,N,07105.2222579,W,0.07,11.57,101023,,,D*6B
$GNGGA,163658.80,4220.2378841,N,07105.2222579,W,5,10,1.1,13.655,M,-28.727,M,0.8,0061*5D
$GPGSA,A,3,10,15,18,23,24,,,,,,,,2.3,1.1,2.0*3A
$GLGSA,A,3,65,72,75,81,,,,,,,,,2.3,1.1,2.0*20
$GAGSA,A,3,07,,,,,,,,,,,,2.3,1.1,2.0*27
$GBGSA,A,3,,,,,,,,,,,,,2.3,1.1,2.0*23
$GPGSV,2,1,05,10,49,311,45,15,32,068,37,18,38,193,38,23,82,044,45*76
$GPGSV,2,2,05,24,60,076,43,,,,,,,,,,,,*4A
$GLGSV,1,1,04,65,60,008,35,72,24,072,36,75,40,108,42,81,35,300,40*68
$GAGSV,1,1,01,07,76,001,42,,,,,,,,,,,,*58
$GNVTG,11.57,T,,M,0.07,N,0.13,K,D*11
$GNGST,163658.80,5.637,,,,0.150,0.127,0.337*60
$GNZDA,163658.80,10,10,2023,00,00*7C
$GNRMC,163659.80,A,4220.2377628,N,07105.2223159,W,0.03,11.57,101023,,,D*67
$GNGGA,163659.80,4220.2377628,N,07105.2223159,W,5,10,1.1,13.728,M,-28.727,M,0.8,0061*5E
$GPGSA,A,3,10,15,18,23,24,,,,,,,,2.3,1.1,2.0*3A
$GLGSA,A,3,65,72,75,81,,,,,,,,,2.3,1.1,2.0*20
$GAGSA,A,3,07,,,,,,,,,,,,2.3,1.1,2.0*27
$GBGSA,A,3,,,,,,,,,,,,,2.3,1.1,2.0*23
$GPGSV,2,1,05,10,49,311,45,15,32,068,37,18,38,193,36,23,82,044,45*78
$GPGSV,2,2,05,24,60,076,44,,,,,,,,,,,,*4D
$GLGSV,1,1,04,65,60,008,35,72,24,072,37,75,40,108,43,81,35,300,40*68
$GAGSV,1,1,01,07,76,001,42,,,,,,,,,,,,*58
$GNVTG,11.57,T,,M,0.03,N,0.05,K,D*12
$GNGST,163659.80,5.923,,,,0.148,0.126,0.331*65
$GNZDA,163659.80,10,10,2023,00,00*7D
$GNRMC,163700.80,A,4220.2376367,N,07105.2223728,W,0.07,11.57,101023,,,D*61
$GNGGA,163700.80,4220.2376367,N,07105.2223728,W,5,10,1.1,13.827,M,-28.727,M,0.8,0061*5C
$GPGSA,A,3,10,15,18,23,24,,,,,,,,2.3,1.1,2.0*3A
$GLGSA,A,3,65,72,75,81,,,,,,,,,2.3,1.1,2.0*20
$GAGSA,A,3,07,,,,,,,,,,,,2.3,1.1,2.0*27
$GBGSA,A,3,,,,,,,,,,,,,2.3,1.1,2.0*23
$GPGSV,2,1,05,10,49,311,45,15,32,068,37,18,38,193,37,23,82,044,45*79
$GPGSV,2,2,05,24,60,076,44,,,,,,,,,,,,*4D
$GLGSV,1,1,04,65,60,008,36,72,24,072,37,75,40,108,43,81,35,300,39*65
$GAGSV,1,1,01,07,76,001,42,,,,,,,,,,,,*58
$GNVTG,11.57,T,,M,0.07,N,0.12,K,D*10
$GNGST,163700.80,6.213,,,,0.145,0.124,0.325*69
$GNZDA,163700.80,10,10,2023,00,00*70
$GNRMC,163701.80,A,4220.2375128,N,07105.2224355,W,0.03,11.57,101023,,,D*67
$GNGGA,163701.80,4220.2375128,N,07105.2224355,W,5,10,1.1,13.871,M,-28.727,M,0.8,0061*5D
$GPGSA,A,3,10,15,18,23,24,,,,,,,,2.3,1.1,2.0*3A
$GLGSA,A,3,65,72,75,81,,,,,,,,,2.3,1.1,2.0*20
$GAGSA,A,3,07,,,,,,,,,,,,2.3,1.1,2.0*27
$GBGSA,A,3,,,,,,,,,,,,,2.3,1.1,2.0*23
$GPGSV,2,1,05,10,49,311,44,15,32,068,38,18,38,193,38,23,82,044,45*78
$GPGSV,2,2,05,24,60,076,44,,,,,,,,,,,,*4D
$GLGSV,1,1,04,65,60,008,35,72,23,072,37,75,40,108,43,81,35,300,39*61
$GAGSV,1,1,01,07,76,001,42,,,,,,,,,,,,*58
$GNVTG,11.57,T,,M,0.03,N,0.06,K,D*11
$GNGST,163701.80,6.366,,,,0.143,0.123,0.319*65
$GNZDA,163701.80,10,10,2023,00,00*71
$GNRMC,163702.80,A,4220.2373974,N,07105.2224979,W,0.08,11.57,101023,,,D*6C
$GNGGA,163702.80,4220.2373974,N,07105.2224979,W,5,10,1.1,13.860,M,-28.727,M,0.8,0061*5D
$GPGSA,A,3,10,15,18,23,24,,,,,,,,2.3,1.1,2.0*3A
$GLGSA,A,3,65,72,75,81,,,,,,,,,2.3,1.1,2.0*20
$GAGSA,A,3,07,,,,,,,,,,,,2.3,1.1,2.0*27
$GBGSA,A,3,,,,,,,,,,,,,2.3,1.1,2.0*23
$GPGSV,2,1,05,10,49,311,45,15,32,068,38,18,38,193,37,23,82,044,45*76
$GPGSV,2,2,05,24,60,075,44,,,,,,,,,,,,*4E
$GLGSV,1,1,04,65,60,008,35,72,23,072,37,75,40,108,44,81,35,300,39*66
$GAGSV,1,1,01,07,76,001,42,,,,,,,,,,,,*58
$GNVTG,11.57,T,,M,0.08,N,0.14,K,D*19
$GNGST,163702.80,6.526,,,,0.141,0.121,0.313*6E
$GNZDA,163702.80,10,10,2023,00,00*72
$GNRMC,163703.80,A,4220.2372747,N,07105.2225680,W,0.09,11.57,101023,,,D*6B
$GNGGA,163703.80,4220.2372747,N,07105.2225680,W,5,10,1.1,13.824,M,-28.727,M,0.8,0061*5B
$GPGSA,A,3,10,15,18,23,24,,,,,,,,2.3,1.1,2.0*3A
$GLGSA,A,3,65,72,75,81,,,,,,,,,2.3,1.1,2.0*20
$GAGSA,A,3,07,,,,,,,,,,,,2.3,1.1,2.0*27
$GBGSA,A,3,,,,,,,,,,,,,2.3,1.1,2.0*23
$GPGSV,2,1,05,10,49,311,45,15,32,068,38,18,38,193,37,23,82,044,45*76
$GPGSV,2,2,05,24,60,075,44,,,,,,,,,,,,*4E
$GLGSV,1,1,04,65,60,008,35,72,23,072,36,75,40,108,44,81,35,300,38*66
$GAGSV,1,1,01,07,76,001,42,,,,,,,,,,,,*58
$GNVTG,11.57,T,,M,0.09,N,0.16,K,D*1A
$GNGST,163703.80,6.683,,,,0.138,0.120,0.308*66
$GNZDA,163703.80,10,10,2023,00,00*73
$GNRMC,163704.80,A,4220.2371639,N,07105.2226376,W,0.04,11.57,101023,,,D*65
$GNGGA,163704.80,4220.2371639,N,07105.2226376,W,4,10,1.1,13.675,M,-28.727,M,0.8,0061*53
$GPGSA,A,3,10,15,18,23,24,,,,,,,,2.3,1.1,2.0*3A
$GLGSA,A,3,65,72,75,81,,,,,,,,,2.3,1.1,2.0*20
$GAGSA,A,3,07,,,,,,,,,,,,2.3,1.1,2.0*27
$GBGSA,A,3,,,,,,,,,,,,,2.3,1.1,2.0*23
$GPGSV,2,1,05,10,49,311,44,15,32,068,38,18,38,193,37,23,82,044,45*77
$GPGSV,2,2,05,24,60,075,44,,,,,,,,,,,,*4E
$GLGSV,1,1,04,65,60,008,36,72,23,072,36,75,40,108,44,81,35,300,38*65
$GAGSV,1,1,01,07,76,001,41,,,,,,,,,,,,*5B
$GNVTG,11.57,T,,M,0.04,N,0.08,K,D*18
$GNGST,163704.80,6.779,,,,0.008,0.006,0.018*60
$GNZDA,163704.80,10,10,2023,00,00*74
$GNRMC,163705.80,A,4220.2370795,N,07105.2226623,W,0.01,11.57,101023,,,D*62
$GNGGA,163705.80,4220.2370795,N,07105.2226623,W,4,10,1.1,13.534,M,-28.727,M,0.8,0061*57
$GPGSA,A,3,10,15,18,23,24,,,,,,,,2.3,1.1,2.0*3A
$GLGSA,A,3,65,72,75,81,,,,,,,,,2.3,1.1,2.0*20
$GAGSA,A,3,07,,,,,,,,,,,,2.3,1.1,2.0*27
$GBGSA,A,3,,,,,,,,,,,,,2.3,1.1,2.0*23
$GPGSV,2,1,05,10,49,311,45,15,32,068,39,18,38,193,38,23,82,044,45*78
$GPGSV,2,2,05,24,60,075,44,,,,,,,,,,,,*4E
$GLGSV,1,1,04,65,60,008,36,72,23,072,36,75,40,108,44,81,35,300,38*65
$GAGSV,1,1,01,07,76,001,42,,,,,,,,,,,,*58
$GNVTG,11.57,T,,M,0.01,N,0.02,K,D*17
$GNGST,163705.80,6.905,,,,0.008,0.006,0.018*64
$GNZDA,163705.80,10,10,2023,00,00*75
$GNRMC,163706.80,A,4220.2369324,N,07105.2227591,W,0.03,11.57,101023,,,D*6E
$GNGGA,163706.80,4220.2369324,N,07105.2227591,W,5,10,1.1,13.619,M,-28.727,M,0.8,0061*54
$GPGSA,A,3,10,15,18,23,24,,,,,,,,2.2,1.1,2.0*3B
$GLGSA,A,3,65,72,75,81,,,,,,,,,2.2,1.1,2.0*21
$GAGSA,A,3,07,,,,,,,,,,,,2.2,1.1,2.0*26
$GBGSA,A,3,,,,,,,,,,,,,2.2,1.1,2.0*22
$GPGSV,2,1,05,10,49,311,45,15,32,068,39,18,38,193,38,23,82,044,45*78
$GPGSV,2,2,05,24,60,075,44,,,,,,,,,,,,*4E
$GLGSV,1,1,04,65,60,008,37,72,23,072,37,75,40,108,44,81,35,300,39*64
$GAGSV,1,1,01,07,76,001,42,,,,,,,,,,,,*58
$GNVTG,11.57,T,,M,0.03,N,0.05,K,D*12
$GNGST,163706.80,6.981,,,,0.132,0.116,0.292*63
$GNZDA,163706.80,10,10,2023,00,00*76
$GNRMC,163707.80,A,4220.2368316,N,07105.2228217,W,0.07,11.57,101023,,,D*6D
$GNGGA,163707.80,4220.2368316,N,07105.2228217,W,5,10,1.1,13.523,M,-28.727,M,0.8,0061*59
$GPGSA,A,3,10,15,18,23,24,,,,,,,,2.2,1.1,2.0*3B
$GLGSA,A,3,65,72,75,81,,,,,,,,,2.2,1.1,2.0*21
$GAGSA,A,3,07,,,,,,,,,,,,2.2,1.1,2.0*26
$GBGSA,A,3,,,,,,,,,,,,,2.2,1.1,2.0*22
$GPGSV,2,1,05,10,49,311,45,15,32,068,39,18,38,193,39,23,82,045,45*78
$GPGSV,2,2,05,24,60,075,44,,,,,,,,,,,,*4E
$GLGSV,1,1,04,65,60,008,38,72,23,072,37,75,40,108,44,81,35,300,38*6A
$GAGSV,1,1,01,07,76,001,41,,,,,,,,,,,,*5B
$GNVTG,11.57,T,,M,0.07,N,0.14,K,D*16
$GNGST,163707.80,6.897,,,,0.130,0.115,0.286*60
$GNZDA,163707.80,10,10,2023,00,00*77
$GNRMC,163708.80,A,4220.2367465,N,07105.2228808,W,0.06,11.57,101023,,,D*6B
$GNGGA,163708.80,4220.2367465,N,07105.2228808,W,5,10,1.1,13.415,M,-28.727,M,0.8,0061*5A
$GPGSA,A,3,10,15,18,23,24,,,,,,,,2.2,1.1,2.0*3B
$GLGSA,A,3,65,72,75,81,,,,,,,,,2.2,1.1,2.0*21
$GAGSA,A,3,07,,,,,,,,,,,,2.2,1.1,2.0*26
$GBGSA,A,3,,,,,,,,,,,,,2.2,1.1,2.0*22
$GPGSV,2,1,05,10,49,311,45,15,32,068,39,18,38,193,39,23,82,045,45*78
$GPGSV,2,2,05,24,60,075,45,,,,,,,,,,,,*4F
$GLGSV,1,1,04,65,60,008,38,72,23,072,37,75,40,108,44,81,35,300,38*6A
$GAGSV,1,1,01,07,76,001,42,,,,,,,,,,,,*58
$GNVTG,11.57,T,,M,0.06,N,0.12,K,D*11
$GNGST,163708.80,6.796,,,,0.128,0.113,0.281*69
$GNZDA,163708.80,10,10,2023,00,00*78
$GNRMC,163709.80,A,4220.2366762,N,07105.2229349,W,0.01,11.57,101023,,,D*67
$GNGGA,163709.80,4220.2366762,N,07105.2229349,W,5,10,1.1,13.267,M,-28.727,M,0.8,0061*52
$GPGSA,A,3,10,15,18,23,24,,,,,,,,2.2,1.1,2.0*3B
$GLGSA,A,3,65,72,75,81,,,,,,,,,2.2,1.1,2.0*21
$GAGSA,A,3,07,,,,,,,,,,,,2.2,1.1,2.0*26
$GBGSA,A,3,,,,,,,,,,,,,2.2,1.1,2.0*22
$GPGSV,2,1,05,10,49,311,45,15,32,068,39,18,38,193,40,23,82,045,45*76
$GPGSV,2,2,05,24,60,075,45,,,,,,,,,,,,*4F
$GLGSV,1,1,04,65,60,008,38,72,23,072,38,75,40,108,44,81,35,300,38*65
$GAGSV,1,1,01,07,76,001,42,,,,,,,,,,,,*58
$GNVTG,11.57,T,,M,0.01,N,0.02,K,D*17
$GNGST,163709.80,6.680,,,,0.126,0.112,0.276*69
$GNZDA,163709.80,10,10,2023,00,00*79
$GNRMC,163710.80,A,4220.2365871,N,07105.2230025,W,0.00,11.57,101023,,,D*61
$GNGGA,163710.80,4220.2365871,N,07105.2230025,W,4,10,1.1,13.386,M,-28.727,M,0.8,0061*5A
$GPGSA,A,3,10,15,18,23,24,,,,,,,,2.2,1.1,2.0*3B
$GLGSA,A,3,65,72,75,81,,,,,,,,,2.2,1.1,2.0*21
$GAGSA,A,3,07,,,,,,,,,,,,2.2,1.1,2.0*26
$GBGSA,A,3,,,,,,,,,,,,,2.2,1.1,2.0*22
$GPGSV,2,1,05,10,49,311,45,15,32,068,39,18,38,193,40,23,82,045,46*75
$GPGSV,2,2,05,24,60,075,45,,,,,,,,,,,,*4F
$GLGSV,1,1,04,65,60,008,40,72,23,072,40,75,40,108,45,81,35,300,40*6B
$GAGSV,1,1,01,07,76,001,42,,,,,,,,,,,,*58
$GNVTG,11.57,T,,M,0.00,N,0.01,K,D*15
$GNGST,163710.80,6.676,,,,0.008,0.006,0.018*6B
$GNZDA,163710.80,10,10,2023,00,00*71
$GNRMC,163711.80,A,4220.2365616,N,07105.2230161,W,0.04,11.57,101023,,,D*6A
$GNGGA,163711.80,4220.2365616,N,07105.2230161,W,5,10,1.1,13.017,M,-28.727,M,0.8,0061*5F
$GPGSA,A,3,10,15,18,23,24,,,,,,,,2.2,1.1,2.0*3B
$GLGSA,A,3,65,72,75,81,,,,,,,,,2.2,1.1,2.0*21
$GAGSA,A,3,07,,,,,,,,,,,,2.2,1.1,2.0*26
$GBGSA,A,3,,,,,,,,,,,,,2.2,1.1,2.0*22
$GPGSV,2,1,05,10,49,311,45,15,32,068,39,18,38,193,41,23,82,045,46*74
$GPGSV,2,2,05,24,60,075,45,,,,,,,,,,,,*4F
$GLGSV,1,1,04,65,60,008,41,72,23,072,40,75,40,108,45,81,35,300,40*6A
$GAGSV,1,1,01,07,76,001,42,,,,,,,,,,,,*58
$GNVTG,11.57,T,,M,0.04,N,0.07,K,D*17
$GNGST,163711.80,6.565,,,,0.122,0.110,0.266*6F
$GNZDA,163711.80,10,10,2023,00,00*70
$GNRMC,163712.80,A,4220.2365141,N,07105.2230485,W,0.03,11.57,101023,,,D*64
$GNGGA,163712.80,4220.2365141,N,07105.2230485,W,5,10,1.1,12.924,M,-28.728,M,0.8,0061*51
$GPGSA,A,3,10,15,18,23,24,,,,,,,,2.2,1.1,2.0*3B
$GLGSA,A,3,65,72,75,81,,,,,,,,,2.2,1.1,2.0*21
$GAGSA,A,3,07,,,,,,,,,,,,2.2,1.1,2.0*26
$GBGSA,A,3,,,,,,,,,,,,,2.2,1.1,2.0*22
$GPGSV,2,1,05,10,49,311,45,15,32,068,38,18,38,193,41,23,82,045,46*75
$GPGSV,2,2,05,24,60,075,45,,,,,,,,,,,,*4F
$GLGSV,1,1,04,65,60,008,41,72,23,072,39,75,40,108,45,81,35,300,39*6A
$GAGSV,1,1,01,07,76,001,42,,,,,,,,,,,,*58
$GNVTG,11.57,T,,M,0.03,N,0.05,K,D*12
$GNGST,163712.80,6.638,,,,0.120,0.109,0.262*69
$GNZDA,163712.80,10,10,2023,00,00*73
$GNRMC,163713.80,A,4220.2364761,N,07105.2230675,W,0.07,11.57,101023,,,D*69
$GNGGA,163713.80,4220.2364761,N,07105.2230675,W,5,10,1.1,12.784,M,-28.728,M,0.8,0061*5C
$GPGSA,A,3,10,15,18,23,24,,,,,,,,2.2,1.1,2.0*3B
$GLGSA,A,3,65,72,75,81,,,,,,,,,2.2,1.1,2.0*21
$GAGSA,A,3,07,,,,,,,,,,,,2.2,1.1,2.0*26
$GBGSA,A,3,,,,,,,,,,,,,2.2,1.1,2.0*22
$GPGSV,2,1,05,10,49,311,45,15,32,068,38,18,38,193,42,23,82,045,46*76
$GPGSV,2,2,05,24,60,075,45,,,,,,,,,,,,*4F
$GLGSV,1,1,04,65,60,008,41,72,23,072,40,75,40,108,45,81,35,300,39*64
$GAGSV,1,1,01,07,76,001,42,,,,,,,,,,,,*58
$GNVTG,11.57,T,,M,0.07,N,0.14,K,D*16
$GNGST,163713.80,6.688,,,,0.119,0.108,0.257*6E
$GNZDA,163713.80,10,10,2023,00,00*72
$GNRMC,163714.80,A,4220.2364503,N,07105.2230826,W,0.06,11.57,101023,,,D*61
$GNGGA,163714.80,4220.2364503,N,07105.2230826,W,5,10,1.1,12.687,M,-28.728,M,0.8,0061*57
$GPGSA,A,3,10,15,18,23,24,,,,,,,,2.2,1.1,2.0*3B
$GLGSA,A,3,65,72,75,81,,,,,,,,,2.2,1.1,2.0*21
$GAGSA,A,3,07,,,,,,,,,,,,2.2,1.1,2.0*26
$GBGSA,A,3,,,,,,,,,,,,,2.2,1.1,2.0*22
$GPGSV,2,1,05,10,49,311,45,15,32,068,38,18,38,193,43,23,82,045,46*77
$GPGSV,2,2,05,24,60,075,46,,,,,,,,,,,,*4C
$GLGSV,1,1,04,65,60,008,41,72,23,072,40,75,40,108,45,81,35,300,39*64
$GAGSV,1,1,01,07,76,001,42,,,,,,,,,,,,*58
$GNVTG,11.57,T,,M,0.06,N,0.10,K,D*13
$GNGST,163714.80,6.725,,,,0.117,0.107,0.253*6A
$GNZDA,163714.80,10,10,2023,00,00*75
$GNRMC,163715.80,A,4220.2364287,N,07105.2231015,W,0.01,11.57,101023,,,D*65
$GNGGA,163715.80,4220.2364287,N,07105.2231015,W,5,10,1.1,12.591,M,-28.728,M,0.8,0061*50
$GPGSA,A,3,10,15,18,23,24,,,,,,,,2.2,1.1,2.0*3B
$GLGSA,A,3,65,72,75,81,,,,,,,,,2.2,1.1,2.0*21
$GAGSA,A,3,07,,,,,,,,,,,,2.2,1.1,2.0*26
$GBGSA,A,3,,,,,,,,,,,,,2.2,1.1,2.0*22
$GPGSV,2,1,05,10,49,311,45,15,32,068,38,18,38,193,42,23,82,045,46*76
$GPGSV,2,2,05,24,60,075,46,,,,,,,,,,,,*4C
$GLGSV,1,1,04,65,60,008,41,72,23,072,40,75,40,108,45,81,35,300,38*65
$GAGSV,1,1,01,07,76,001,42,,,,,,,,,,,,*58
$GNVTG,11.57,T,,M,0.01,N,0.02,K,D*17
$GNGST,163715.80,6.870,,,,0.115,0.106,0.248*6D
$GNZDA,163715.80,10,10,2023,00,00*74
$GNRMC,163716.80,A,4220.2364194,N,07105.2231148,W,0.01,11.57,101023,,,D*6E
$GNGGA,163716.80,4220.2364194,N,07105.2231148,W,5,10,1.1,12.519,M,-28.728,M,0.8,0061*5B
$GPGSA,A,3,10,15,18,23,24,,,,,,,,2.2,1.1,2.0*3B
$GLGSA,A,3,65,72,75,81,,,,,,,,,2.2,1.1,2.0*21
$GAGSA,A,3,07,,,,,,,,,,,,2.2,1.1,2.0*26
$GBGSA,A,3,,,,,,,,,,,,,2.2,1.1,2.0*22
$GPGSV,2,1,05,10,49,311,45,15,32,068,38,18,38,193,43,23,82,045,46*77
$GPGSV,2,2,05,24,60,075,46,,,,,,,,,,,,*4C
$GLGSV,1,1,04,65,60,008,41,72,23,072,40,75,40,108,45,81,35,300,38*65
$GAGSV,1,1,01,07,76,001,42,,,,,,,,,,,,*58
$GNVTG,11.57,T,,M,0.01,N,0.02,K,D*17
$GNGST,163716.80,7.223,,,,0.113,0.105,0.244*6A
$GNZDA,163716.80,10,10,2023,00,00*77
$GNRMC,163717.80,A,4220.2364093,N,07105.2231226,W,0.07,11.57,101023,,,D*64
$GNGGA,163717.80,4220.2364093,N,07105.2231226,W,5,10,1.1,12.469,M,-28.728,M,0.8,0061*51
$GPGSA,A,3,10,15,18,23,24,,,,,,,,2.2,1.1,2.0*3B
$GLGSA,A,3,65,72,75,81,,,,,,,,,2.2,1.1,2.0*21
$GAGSA,A,3,07,,,,,,,,,,,,2.2,1.1,2.0*26
$GBGSA,A,3,,,,,,,,,,,,,2.2,1.1,2.0*22
$GPGSV,2,1,05,10,49,311,45,15,32,068,39,18,38,193,43,23,82,045,46*76
$GPGSV,2,2,05,24,60,075,46,,,,,,,,,,,,*4C
$GLGSV,1,1,04,65,60,008,41,72,23,072,40,75,40,108,45,81,35,300,39*64
$GAGSV,1,1,01,07,76,001,42,,,,,,,,,,,,*58
$GNVTG,11.57,T,,M,0.07,N,0.13,K,D*11
$GNGST,163717.80,7.406,,,,0.112,0.104,0.239*60
$GNZDA,163717.80,10,10,2023,00,00*76
$GNRMC,163718.80,A,4220.2364070,N,07105.2231240,W,0.04,11.57,101023,,,D*65
$GNGGA,163718.80,4220.2364070,N,07105.2231240,W,5,10,1.1,12.396,M,-28.728,M,0.8,0061*54
$GPGSA,A,3,10,15,18,23,24,,,,,,,,2.2,1.1,2.0*3B
$GLGSA,A,3,65,72,75,81,,,,,,,,,2.2,1.1,2.0*21
$GAGSA,A,3,07,,,,,,,,,,,,2.2,1.1,2.0*26
$GBGSA,A,3,,,,,,,,,,,,,2.2,1.1,2.0*22
$GPGSV,2,1,05,10,49,311,45,15,32,068,38,18,38,193,44,23,82,045,46*70
$GPGSV,2,2,05,24,60,075,46,,,,,,,,,,,,*4C
$GLGSV,1,1,04,65,60,008,40,72,23,072,39,75,40,108,45,81,35,300,38*6A
$GAGSV,1,1,01,07,76,001,42,,,,,,,,,,,,*58
$GNVTG,11.57,T,,M,0.04,N,0.07,K,D*17
$GNGST,163718.80,7.586,,,,0.110,0.103,0.235*6F
$GNZDA,163718.80,10,10,2023,00,00*79
$GNRMC,163719.80,A,4220.2363965,N,07105.2231243,W,0.04,11.57,101023,,,D*6D
$GNGGA,163719.80,4220.2363965,N,07105.2231243,W,5,10,1.1,12.328,M,-28.728,M,0.8,0061*59
$GPGSA,A,3,10,15,18,23,24,,,,,,,,2.2,1.1,2.0*3B
$GLGSA,A,3,65,72,75,81,,,,,,,,,2.2,1.1,2.0*21
$GAGSA,A,3,07,,,,,,,,,,,,2.2,1.1,2.0*26
$GBGSA,A,3,,,,,,,,,,,,,2.2,1.1,2.0*22
$GPGSV,2,1,05,10,49,311,45,15,32,068,38,18,38,193,42,23,82,045,46*76
$GPGSV,2,2,05,24,60,075,45,,,,,,,,,,,,*4F
$GLGSV,1,1,04,65,60,008,40,72,23,072,40,75,40,108,45,81,35,300,38*64
$GAGSV,1,1,01,07,76,001,42,,,,,,,,,,,,*58
$GNVTG,11.57,T,,M,0.04,N,0.08,K,D*18
$GNGST,163719.80,7.705,,,,0.108,0.102,0.231*6B
$GNZDA,163719.80,10,10,2023,00,00*78
$GNRMC,163720.80,A,4220.2363958,N,07105.2231194,W,0.10,11.57,101023,,,D*65
$GNGGA,163720.80,4220.2363958,N,07105.2231194,W,5,10,1.1,12.259,M,-28.728,M,0.8,0061*53
$GPGSA,A,3,10,15,18,23,24,,,,,,,,2.2,1.1,2.0*3B
$GLGSA,A,3,65,72,75,81,,,,,,,,,2.2,1.1,2.0*21
$GAGSA,A,3,07,,,,,,,,,,,,2.2,1.1,2.0*26
$GBGSA,A,3,,,,,,,,,,,,,2.2,1.1,2.0*22
$GPGSV,2,1,05,10,49,311,45,15,32,068,37,18,38,193,42,23,82,045,46*79
$GPGSV,2,2,05,24,60,075,45,,,,,,,,,,,,*4F
$GLGSV,1,1,04,65,60,008,40,72,23,072,40,75,40,108,45,81,35,300,35*69
$GAGSV,1,1,01,07,76,001,42,,,,,,,,,,,,*58
$GNVTG,11.57,T,,M,0.10,N,0.18,K,D*1C
$GNGST,163720.80,7.789,,,,0.107,0.101,0.227*6E
$GNZDA,163720.80,10,10,2023,00,00*72
$GNRMC,163721.80,A,4220.2364004,N,07105.2231260,W,0.04,11.57,101023,,,D*6E
$GNGGA,163721.80,4220.2364004,N,07105.2231260,W,5,10,1.1,12.219,M,-28.728,M,0.8,0061*59
$GPGSA,A,3,10,15,18,23,24,,,,,,,,2.2,1.1,2.0*3B
$GLGSA,A,3,65,72,75,81,,,,,,,,,2.2,1.1,2.0*21
$GAGSA,A,3,07,,,,,,,,,,,,2.2,1.1,2.0*26
$GBGSA,A,3,,,,,,,,,,,,,2.2,1.1,2.0*22
$GPGSV,2,1,05,10,49,311,45,15,32,068,37,18,38,193,44,23,82,045,46*7F
$GPGSV,2,2,05,24,60,075,45,,,,,,,,,,,,*4F
$GLGSV,1,1,04,65,60,008,39,72,23,072,38,75,40,108,45,81,35,300,35*68
$GAGSV,1,1,01,07,76,001,42,,,,,,,,,,,,*58
$GNVTG,11.57,T,,M,0.04,N,0.08,K,D*18
$GNGST,163721.80,7.806,,,,0.105,0.100,0.223*60
$GNZDA,163721.80,10,10,2023,00,00*73
$GNRMC,163722.80,A,4220.2364081,N,07105.2231383,W,0.06,11.57,101023,,,D*6E
$GNGGA,163722.80,4220.2364081,N,07105.2231383,W,5,10,1.1,12.164,M,-28.728,M,0.8,0061*52
$GPGSA,A,3,10,15,18,23,24,,,,,,,,2.2,1.1,2.0*3B
$GLGSA,A,3,65,72,75,81,,,,,,,,,2.2,1.1,2.0*21
$GAGSA,A,3,07,,,,,,,,,,,,2.2,1.1,2.0*26
$GBGSA,A,3,,,,,,,,,,,,,2.2,1.1,2.0*22
$GPGSV,2,1,05,10,49,311,46,15,32,068,38,18,38,193,44,23,82,046,46*70
$GPGSV,2,2,05,24,60,075,45,,,,,,,,,,,,*4F
$GLGSV,1,1,04,65,60,008,39,72,23,072,38,75,40,108,46,81,35,300,36*68
$GAGSV,1,1,01,07,76,001,42,,,,,,,,,,,,*58
$GNVTG,11.57,T,,M,0.06,N,0.12,K,D*11
$GNGST,163722.80,7.923,,,,0.104,0.099,0.219*6C
$GNZDA,163722.80,10,10,2023,00,00*70
$GNRMC,163723.80,A,4220.2364186,N,07105.2231459,W,0.03,11.57,101023,,,D*6C
$GNGGA,163723.80,4220.2364186,N,07105.2231459,W,5,10,1.1,12.113,M,-28.728,M,0.8,0061*55
$GPGSA,A,3,10,15,18,23,24,,,,,,,,2.2,1.1,2.0*3B
$GLGSA,A,3,65,72,75,81,,,,,,,,,2.2,1.1,2.0*21
$GAGSA,A,3,07,,,,,,,,,,,,2.2,1.1,2.0*26
$GBGSA,A,3,,,,,,,,,,,,,2.2,1.1,2.0*22
$GPGSV,2,1,05,10,49,311,46,15,32,068,38,18,38,193,44,23,82,046,46*70
$GPGSV,2,2,05,24,60,075,45,,,,,,,,,,,,*4F
$GLGSV,1,1,04,65,60,008,39,72,23,072,38,75,40,108,45,81,35,300,36*6B
$GAGSV,1,1,01,07,76,001,42,,,,,,,,,,,,*58
$GNVTG,11.57,T,,M,0.03,N,0.05,K,D*12
$GNGST,163723.80,8.027,,,,0.102,0.098,0.216*67
$GNZDA,163723.80,10,10,2023,00,00*71
$GNRMC,163724.80,A,4220.2364315,N,07105.2231529,W,0.01,11.57,101023,,,D*67
$GNGGA,163724.80,4220.2364315,N,07105.2231529,W,5,10,1.1,12.050,M,-28.728,M,0.8,0061*5A
$GPGSA,A,3,10,15,18,23,24,,,,,,,,2.2,1.1,2.0*3B
$GLGSA,A,3,65,72,75,81,,,,,,,,,2.2,1.1,2.0*21
$GAGSA,A,3,07,,,,,,,,,,,,2.2,1.1,2.0*26
$GBGSA,A,3,,,,,,,,,,,,,2.2,1.1,2.0*22
$GPGSV,2,1,05,10,49,311,46,15,32,068,38,18,38,193,44,23,82,046,46*70
$GPGSV,2,2,05,24,60,075,45,,,,,,,,,,,,*4F
$GLGSV,1,1,04,65,60,008,38,72,23,072,38,75,40,108,45,81,35,300,36*6A
$GAGSV,1,1,01,07,76,001,42,,,,,,,,,,,,*58
$GNVTG,11.57,T,,M,0.01,N,0.03,K,D*16
$GNGST,163724.80,8.081,,,,0.101,0.097,0.212*64
$GNZDA,163724.80,10,10,2023,00,00*76
$GNRMC,163725.80,A,4220.2364408,N,07105.2231599,W,0.03,11.57,101023,,,D*64
$GNGGA,163725.80,4220.2364408,N,07105.2231599,W,5,10,1.1,11.983,M,-28.728,M,0.8,0061*5F
$GPGSA,A,3,10,15,18,23,24,,,,,,,,2.2,1.1,2.0*3B
$GLGSA,A,3,65,72,75,81,,,,,,,,,2.2,1.1,2.0*21
$GAGSA,A,3,07,,,,,,,,,,,,2.2,1.1,2.0*26
$GBGSA,A,3,,,,,,,,,,,,,2.2,1.1,2.0*22
$GPGSV,2,1,05,10,49,311,46,15,32,068,38,18,38,193,45,23,82,046,46*71
$GPGSV,2,2,05,24,60,075,45,,,,,,,,,,,,*4F
$GLGSV,1,1,04,65,60,008,38,72,23,072,38,75,41,108,45,81,35,300,36*6B
$GAGSV,1,1,01,07,76,001,42,,,,,,,,,,,,*58
$GNVTG,11.57,T,,M,0.03,N,0.06,K,D*11
$GNGST,163725.80,7.883,,,,0.099,0.096,0.208*6A
$GNZDA,163725.80,10,10,2023,00,00*77
$GNRMC,163726.80,A,4220.2364467,N,07105.2231739,W,0.06,11.57,101023,,,D*63
$GNGGA,163726.80,4220.2364467,N,07105.2231739,W,5,10,1.1,11.901,M,-28.728,M,0.8,0061*57
$GPGSA,A,3,10,15,18,23,24,,,,,,,,2.2,1.1,2.0*3B
$GLGSA,A,3,65,72,75,81,,,,,,,,,2.2,1.1,2.0*21
$GAGSA,A,3,07,,,,,,,,,,,,2.2,1.1,2.0*26
$GBGSA,A,3,,,,,,,,,,,,,2.2,1.1,2.0*22
$GPGSV,2,1,05,10,49,311,46,15,32,068,37,18,38,193,45,23,82,046,46*7E
$GPGSV,2,2,05,24,60,075,45,,,,,,,,,,,,*4F
$GLGSV,1,1,04,65,60,008,38,72,23,072,38,75,41,108,45,81,35,300,36*6B
$GAGSV,1,1,01,07,76,001,42,,,,,,,,,,,,*58
$GNVTG,11.57,T,,M,0.06,N,0.11,K,D*12
$GNGST,163726.80,7.947,,,,0.098,0.096,0.205*6C
$GNZDA,163726.80,10,10,2023,00,00*74
$GNRMC,163727.80,A,4220.2364464,N,07105.2231815,W,0.02,11.57,101023,,,D*64
$GNGGA,163727.80,4220.2364464,N,07105.2231815,W,5,10,1.1,11.845,M,-28.728,M,0.8,0061*55
$GPGSA,A,3,10,15,18,23,24,,,,,,,,2.2,1.1,2.0*3B
$GLGSA,A,3,65,72,75,81,,,,,,,,,2.2,1.1,2.0*21
$GAGSA,A,3,07,,,,,,,,,,,,2.2,1.1,2.0*26
$GBGSA,A,3,,,,,,,,,,,,,2.2,1.1,2.0*22
$GPGSV,2,1,05,10,49,311,46,15,32,068,37,18,38,193,45,23,82,046,46*7E
$GPGSV,2,2,05,24,60,075,45,,,,,,,,,,,,*4F
$GLGSV,1,1,04,65,60,008,38,72,23,072,38,75,41,108,45,81,35,300,35*68
$GAGSV,1,1,01,07,76,001,42,,,,,,,,,,,,*58
$GNVTG,11.57,T,,M,0.02,N,0.03,K,D*15
$GNGST,163727.80,7.813,,,,0.097,0.095,0.201*65
$GNZDA,163727.80,10,10,2023,00,00*75
$GNRMC,163728.80,A,4220.2364421,N,07105.2231975,W,0.02,11.57,101023,,,D*6D
$GNGGA,163728.80,4220.2364421,N,07105.2231975,W,5,10,1.1,11.791,M,-28.728,M,0.8,0061*5A
$GPGSA,A,3,10,15,18,23,24,,,,,,,,2.2,1.1,2.0*3B
$GLGSA,A,3,65,72,75,81,,,,,,,,,2.2,1.1,2.0*21
$GAGSA,A,3,07,,,,,,,,,,,,2.2,1.1,2.0*26
$GBGSA,A,3,,,,,,,,,,,,,2.2,1.1,2.0*22
$GPGSV,2,1,05,10,49,311,45,15,32,068,36,18,38,193,45,23,82,046,46*7C
$GPGSV,2,2,05,24,60,075,45,,,,,,,,,,,,*4F
$GLGSV,1,1,04,65,60,008,37,72,23,072,38,75,41,108,45,81,35,300,36*64
$GAGSV,1,1,01,07,76,002,42,,,,,,,,,,,,*5B
$GNVTG,11.57,T,,M,0.02,N,0.03,K,D*15
$GNGST,163728.80,7.829,,,,0.095,0.094,0.198*63
$GNZDA,163728.80,10,10,2023,00,00*7A
$GNRMC,163729.80,A,4220.2364359,N,07105.2232155,W,0.02,11.57,101023,,,D*6D
$GNGGA,163729.80,4220.2364359,N,07105.2232155,W,5,10,1.1,11.735,M,-28.728,M,0.8,0061*54
$GPGSA,A,3,10,15,18,23,24,,,,,,,,2.2,1.1,2.0*3B
$GLGSA,A,3,65,72,75,81,,,,,,,,,2.2,1.1,2.0*21
$GAGSA,A,3,07,,,,,,,,,,,,2.2,1.1,2.0*26
$GBGSA,A,3,,,,,,,,,,,,,2.2,1.1,2.0*22
$GPGSV,2,1,05,10,49,311,45,15,32,068,36,18,38,193,45,23,82,046,46*7C
$GPGSV,2,2,05,24,60,075,45,,,,,,,,,,,,*4F
$GLGSV,1,1,04,65,60,008,37,72,23,072,38,75,41,108,45,81,35,300,36*64
$GAGSV,1,1,01,07,76,002,42,,,,,,,,,,,,*5B
$GNVTG,11.57,T,,M,0.02,N,0.04,K,D*12
$GNGST,163729.80,7.806,,,,0.094,0.093,0.194*65
$GNZDA,163729.80,10,10,2023,00,00*7B
$GNRMC,163730.80,A,4220.2364349,N,07105.2232323,W,0.02,11.57,101023,,,D*67
$GNGGA,163730.80,4220.2364349,N,07105.2232323,W,5,10,1.1,11.669,M,-28.728,M,0.8,0061*56
$GPGSA,A,3,10,15,18,23,24,,,,,,,,2.2,1.1,2.0*3B
$GLGSA,A,3,65,72,75,81,,,,,,,,,2.2,1.1,2.0*21
$GAGSA,A,3,07,,,,,,,,,,,,2.2,1.1,2.0*26
$GBGSA,A,3,,,,,,,,,,,,,2.2,1.1,2.0*22
$GPGSV,2,1,05,10,49,311,45,15,32,068,36,18,38,193,45,23,82,046,46*7C
$GPGSV,2,2,05,24,60,075,45,,,,,,,,,,,,*4F
$GLGSV,1,1,04,65,60,008,37,72,23,072,39,75,41,108,45,81,35,300,36*65
$GAGSV,1,1,01,07,76,002,42,,,,,,,,,,,,*5B
$GNVTG,11.57,T,,M,0.02,N,0.04,K,D*12
$GNGST,163730.80,7.928,,,,0.093,0.092,0.191*63
$GNZDA,163730.80,10,10,2023,00,00*73
$GNRMC,163731.80,A,4220.2364300,N,07105.2232526,W,0.03,11.57,101023,,,D*69
$GNGGA,163731.80,4220.2364300,N,07105.2232526,W,5,10,1.1,11.611,M,-28.728,M,0.8,0061*56
$GPGSA,A,3,10,15,18,23,24,,,,,,,,2.2,1.1,2.0*3B
$GLGSA,A,3,65,72,75,81,,,,,,,,,2.2,1.1,2.0*21
$GAGSA,A,3,07,,,,,,,,,,,,2.2,1.1,2.0*26
$GBGSA,A,3,,,,,,,,,,,,,2.2,1.1,2.0*22
$GPGSV,2,1,05,10,49,311,45,15,32,068,36,18,38,193,45,23,82,046,46*7C
$GPGSV,2,2,05,24,60,075,45,,,,,,,,,,,,*4F
$GLGSV,1,1,04,65,60,008,37,72,23,072,39,75,41,108,45,81,35,300,36*65
$GAGSV,1,1,01,07,76,002,42,,,,,,,,,,,,*5B
$GNVTG,11.57,T,,M,0.03,N,0.05,K,D*12
$GNGST,163731.80,8.018,,,,0.091,0.092,0.188*6D
$GNZDA,163731.80,10,10,2023,00,00*72
$GNRMC,163732.80,A,4220.2364254,N,07105.2232704,W,0.04,11.57,101023,,,D*6F
$GNGGA,163732.80,4220.2364254,N,07105.2232704,W,5,10,1.1,11.551,M,-28.728,M,0.8,0061*50
$GPGSA,A,3,10,15,18,23,24,,,,,,,,2.2,1.1,2.0*3B
$GLGSA,A,3,65,72,75,81,,,,,,,,,2.2,1.1,2.0*21
$GAGSA,A,3,07,,,,,,,,,,,,2.2,1.1,2.0*26
$GBGSA,A,3,,,,,,,,,,,,,2.2,1.1,2.0*22
$GPGSV,2,1,05,10,49,311,45,15,32,068,35,18,38,193,45,23,82,046,46*7F
$GPGSV,2,2,05,24,60,075,45,,,,,,,,,,,,*4F
$GLGSV,1,1,04,65,60,008,37,72,23,072,39,75,41,108,44,81,35,300,36*64
$GAGSV,1,1,01,07,76,002,42,,,,,,,,,,,,*5B
$GNVTG,11.57,T,,M,0.04,N,0.07,K,D*17
$GNGST,163732.80,8.137,,,,0.090,0.091,0.185*6D
$GNZDA,163732.80,10,10,2023,00,00*71
$GNRMC,163733.80,A,4220.2364216,N,07105.2232966,W,0.07,11.57,101023,,,D*61
$GNGGA,163733.80,4220.2364216,N,07105.2232966,W,5,10,1.1,11.512,M,-28.728,M,0.8,0061*5A
$GPGSA,A,3,10,15,18,23,24,,,,,,,,2.2,1.1,2.0*3B
$GLGSA,A,3,65,72,75,81,,,,,,,,,2.2,1.1,2.0*21
$GAGSA,A,3,07,,,,,,,,,,,,2.2,1.1,2.0*26
$GBGSA,A,3,,,,,,,,,,,,,2.2,1.1,2.0*22
$GPGSV,2,1,05,10,49,311,46,15,32,068,35,18,38,193,45,23,82,046,46*7C
$GPGSV,2,2,05,24,60,075,45,,,,,,,,,,,,*4F
$GLGSV,1,1,04,65,60,008,37,72,23,072,40,75,41,108,44,81,35,300,36*6A
$GAGSV,1,1,01,07,76,002,42,,,,,,,,,,,,*5B
$GNVTG,11.57,T,,M,0.07,N,0.13,K,D*11
$GNGST,163733.80,8.363,,,,0.089,0.090,0.182*61
$GNZDA,163733.80,10,10,2023,00,00*70
$GNRMC,163734.80,A,4220.2364148,N,07105.2233205,W,0.07,11.57,101023,,,D*61
$GNGGA,163734.80,4220.2364148,N,07105.2233205,W,5,10,1.1,11.467,M,-28.728,M,0.8,0061*59
$GPGSA,A,3,10,15,18,23,24,,,,,,,,2.2,1.1,2.0*3B
$GLGSA,A,3,65,72,75,81,,,,,,,,,2.2,1.1,2.0*21
$GAGSA,A,3,07,,,,,,,,,,,,2.2,1.1,2.0*26
$GBGSA,A,3,,,,,,,,,,,,,2.2,1.1,2.0*22
$GPGSV,2,1,05,10,49,311,46,15,32,068,35,18,38,193,45,23,82,046,46*7C
$GPGSV,2,2,05,24,60,075,45,,,,,,,,,,,,*4F
$GLGSV,1,1,04,65,60,008,37,72,23,072,40,75,41,108,44,81,35,300,35*69
$GAGSV,1,1,01,07,76,002,42,,,,,,,,,,,,*5B
$GNVTG,11.57,T,,M,0.07,N,0.13,K,D*11
$GNGST,163734.80,8.593,,,,0.088,0.089,0.179*62
$GNZDA,163734.80,10,10,2023,00,00*77
$GNRMC,163735.80,A,4220.2364092,N,07105.2233464,W,0.06,11.57,101023,,,D*66
$GNGGA,163735.80,4220.2364092,N,07105.2233464,W,5,10,1.1,11.434,M,-28.728,M,0.8,0061*59
$GPGSA,A,3,10,15,18,23,24,,,,,,,,2.2,1.1,2.0*3B
$GLGSA,A,3,65,72,75,81,,,,,,,,,2.2,1.1,2.0*21
$GAGSA,A,3,07,,,,,,,,,,,,2.2,1.1,2.0*26
$GBGSA,A,3,,,,,,,,,,,,,2.2,1.1,2.0*22
$GPGSV,2,1,05,10,49,311,46,15,32,068,35,18,38,193,45,23,82,046,46*7C
$GPGSV,2,2,05,24,60,075,45,,,,,,,,,,,,*4F
$GLGSV,1,1,04,65,60,008,36,72,23,072,42,75,41,108,44,81,35,300,35*6A
$GAGSV,1,1,01,07,76,002,43,,,,,,,,,,,,*5A
$GNVTG,11.57,T,,M,0.06,N,0.12,K,D*11
$GNGST,163735.80,8.726,,,,0.087,0.089,0.176*6F
$GNZDA,163735.80,10,10,2023,00,00*76
$GNRMC,163736.80,A,4220.2364022,N,07105.2233727,W,0.09,11.57,101023,,,D*65
$GNGGA,163736.80,4220.2364022,N,07105.2233727,W,5,10,1.1,11.409,M,-28.728,M,0.8,0061*5B
$GPGSA,A,3,10,15,18,23,24,,,,,,,,2.2,1.1,2.0*3B
$GLGSA,A,3,65,72,75,81,,,,,,,,,2.2,1.1,2.0*21
$GAGSA,A,3,07,,,,,,,,,,,,2.2,1.1,2.0*26
$GBGSA,A,3,,,,,,,,,,,,,2.2,1.1,2.0*22
$GPGSV,2,1,05,10,49,311,46,15,32,068,35,18,38,193,45,23,82,046,46*7C
$GPGSV,2,2,05,24,60,075,45,,,,,,,,,,,,*4F
$GLGSV,1,1,04,65,60,008,36,72,23,072,42,75,41,108,44,81,35,300,36*69
$GAGSV,1,1,01,07,76,002,43,,,,,,,,,,,,*5A
$GNVTG,11.57,T,,M,0.09,N,0.17,K,D*1B
$GNGST,163736.80,8.718,,,,0.085,0.088,0.173*67
$GNZDA,163736.80,10,10,2023,00,00*75
$GNRMC,163737.80,A,4220.2363944,N,07105.2233984,W,0.03,11.57,101023,,,D*67
$GNGGA,163737.80,4220.2363944,N,07105.2233984,W,5,10,1.1,11.379,M,-28.728,M,0.8,0061*53
$GPGSA,A,3,10,15,18,23,24,,,,,,,,2.2,1.1,2.0*3B
$GLGSA,A,3,65,72,75,81,,,,,,,,,2.2,1.1,2.0*21
$GAGSA,A,3,07,,,,,,,,,,,,2.2,1.1,2.0*26
$GBGSA,A,3,,,,,,,,,,,,,2.2,1.1,2.0*22
$GPGSV,2,1,05,10,49,311,46,15,32,068,35,18,38,193,44,23,82,047,46*7C
$GPGSV,2,2,05,24,60,075,45,,,,,,,,,,,,*4F
$GLGSV,1,1,04,65,60,008,36,72,23,072,42,75,41,108,43,81,35,300,36*6E
$GAGSV,1,1,01,07,76,002,43,,,,,,,,,,,,*5A
$GNVTG,11.57,T,,M,0.03,N,0.06,K,D*11
$GNGST,163737.80,8.790,,,,0.084,0.087,0.170*6B
$GNZDA,163737.80,10,10,2023,00,00*74
$GNRMC,163738.80,A,4220.2363863,N,07105.2234230,W,0.03,11.57,101023,,,D*6F
$GNGGA,163738.80,4220.2363863,N,07105.2234230,W,5,10,1.1,11.385,M,-28.728,M,0.8,0061*58
$GPGSA,A,3,10,15,18,23,24,,,,,,,,2.2,1.1,2.0*3B
$GLGSA,A,3,65,72,75,81,,,,,,,,,2.2,1.1,2.0*21
$GAGSA,A,3,07,,,,,,,,,,,,2.2,1.1,2.0*26
$GBGSA,A,3,,,,,,,,,,,,,2.2,1.1,2.0*22
$GPGSV,2,1,05,10,49,311,46,15,32,068,35,18,38,193,44,23,82,047,46*7C
$GPGSV,2,2,05,24,60,075,45,,,,,,,,,,,,*4F
$GLGSV,1,1,04,65,60,008,36,72,23,072,42,75,41,108,44,81,35,300,36*69
$GAGSV,1,1,01,07,76,002,43,,,,,,,,,,,,*5A
$GNVTG,11.57,T,,M,0.03,N,0.05,K,D*12
$GNGST,163738.80,9.019,,,,0.083,0.086,0.168*6C
$GNZDA,163738.80,10,10,2023,00,00*7B
$GNRMC,163739.80,A,4220.2363739,N,07105.2234490,W,0.06,11.57,101023,,,D*67
$GNGGA,163739.80,4220.2363739,N,07105.2234490,W,5,10,1.1,11.380,M,-28.728,M,0.8,0061*50
$GPGSA,A,3,10,15,18,23,24,,,,,,,,2.2,1.1,2.0*3B
$GLGSA,A,3,65,72,75,81,,,,,,,,,2.2,1.1,2.0*21
$GAGSA,A,3,07,,,,,,,,,,,,2.2,1.1,2.0*26
$GBGSA,A,3,,,,,,,,,,,,,2.2,1.1,2.0*22
$GPGSV,2,1,05,10,49,311,46,15,32,068,35,18,38,193,44,23,82,047,46*7C
$GPGSV,2,2,05,24,60,075,45,,,,,,,,,,,,*4F
$GLGSV,1,1,04,65,60,008,36,72,23,072,42,75,41,108,44,81,35,300,36*69
$GAGSV,1,1,01,07,76,002,43,,,,,,,,,,,,*5A
$GNVTG,11.57,T,,M,0.06,N,0.12,K,D*11
$GNGST,163739.80,9.128,,,,0.082,0.086,0.165*62
$GNZDA,163739.80,10,10,2023,00,00*7A
$GNRMC,163740.80,A,4220.2364544,N,07105.2234591,W,0.09,11.57,101023,,,D*69
$GNGGA,163740.80,4220.2364544,N,07105.2234591,W,4,10,1.1,11.312,M,-28.728,M,0.8,0061*5B
$GPGSA,A,3,10,15,18,23,24,,,,,,,,2.2,1.1,2.0*3B
$GLGSA,A,3,65,72,75,81,,,,,,,,,2.2,1.1,2.0*21
$GAGSA,A,3,07,,,,,,,,,,,,2.2,1.1,2.0*26
$GBGSA,A,3,,,,,,,,,,,,,2.2,1.1,2.0*22
$GPGSV,2,1,05,10,49,311,46,15,32,068,35,18,38,193,44,23,82,047,46*7C
$GPGSV,2,2,05,24,60,075,45,,,,,,,,,,,,*4F
$GLGSV,1,1,04,65,60,008,36,72,23,072,43,75,41,108,44,81,35,300,36*68
$GAGSV,1,1,01,07,76,002,43,,,,,,,,,,,,*5A
$GNVTG,11.57,T,,M,0.09,N,0.16,K,D*1A
$GNGST,163740.80,9.263,,,,0.008,0.006,0.018*61
$GNZDA,163740.80,10,10,2023,00,00*74
$GNRMC,163741.80,A,4220.2364534,N,07105.2234601,W,0.05,11.57,101023,,,D*69
$GNGGA,163741.80,4220.2364534,N,07105.2234601,W,4,10,1.1,11.311,M,-28.728,M,0.8,0061*54
$GPGSA,A,3,10,15,18,23,24,,,,,,,,2.2,1.1,2.0*3B
$GLGSA,A,3,65,72,75,81,,,,,,,,,2.2,1.1,2.0*21
$GAGSA,A,3,07,,,,,,,,,,,,2.2,1.1,2.0*26
$GBGSA,A,3,,,,,,,,,,,,,2.2,1.1,2.0*22
$GPGSV,2,1,05,10,49,311,46,15,32,068,35,18,38,193,44,23,82,047,46*7C
$GPGSV,2,2,05,24,60,075,45,,,,,,,,,,,,*4F
$GLGSV,1,1,04,65,60,008,36,72,23,072,43,75,41,108,44,81,35,300,37*69
$GAGSV,1,1,01,07,76,002,43,,,,,,,,,,,,*5A
$GNVTG,11.57,T,,M,0.05,N,0.10,K,D*10
$GNGST,163741.80,9.469,,,,0.008,0.006,0.018*6C
$GNZDA,163741.80,10,10,2023,00,00*75
$GNRMC,163742.80,A,4220.2363222,N,07105.2235471,W,0.04,11.57,101023,,,D*68
$GNGGA,163742.80,4220.2363222,N,07105.2235471,W,5,10,1.1,11.358,M,-28.728,M,0.8,0061*58
$GPGSA,A,3,10,15,18,23,24,,,,,,,,2.2,1.1,2.0*3B
$GLGSA,A,3,65,72,75,81,,,,,,,,,2.2,1.1,2.0*21
$GAGSA,A,3,07,,,,,,,,,,,,2.2,1.1,2.0*26
$GBGSA,A,3,,,,,,,,,,,,,2.2,1.1,2.0*22
$GPGSV,2,1,05,10,49,311,46,15,32,068,35,18,38,193,44,23,82,047,46*7C
$GPGSV,2,2,05,24,60,075,45,,,,,,,,,,,,*4F
$GLGSV,1,1,04,65,60,008,36,72,23,073,43,75,41,108,44,81,35,300,37*68
$GAGSV,1,1,01,07,76,002,43,,,,,,,,,,,,*5A
$GNVTG,11.57,T,,M,0.04,N,0.07,K,D*17
$GNGST,163742.80,9.817,,,,0.079,0.084,0.157*6C
$GNZDA,163742.80,10,10,2023,00,00*76
$GNRMC,163743.80,A,4220.2363793,N,07105.2234723,W,0.04,11.57,101023,,,D*63
$GNGGA,163743.80,4220.2363793,N,07105.2234723,W,4,09,1.2,11.128,M,-28.728,M,0.8,0061*5C
$GPGSA,A,3,10,18,23,24,,,,,,,,,2.3,1.2,2.0*3D
$GLGSA,A,3,65,72,75,81,,,,,,,,,2.3,1.2,2.0*23
$GAGSA,A,3,07,,,,,,,,,,,,2.3,1.2,2.0*24
$GBGSA,A,3,,,,,,,,,,,,,2.3,1.2,2.0*20
$GPGSV,1,1,04,10,49,311,46,18,38,193,43,23,82,047,46,24,60,075,45*77
$GLGSV,1,1,04,65,60,008,36,72,23,073,43,75,41,108,44,81,35,300,37*68
$GAGSV,1,1,01,07,76,002,43,,,,,,,,,,,,*5A
$GNVTG,11.57,T,,M,0.04,N,0.08,K,D*18
$GNGST,163743.80,3.833,,,,0.010,0.008,0.025*6E
$GNZDA,163743.80,10,10,2023,00,00*77
$GNRMC,163744.80,A,4220.2363548,N,07105.2234440,W,0.02,11.57,101023,,,D*60
$GNGGA,163744.80,4220.2363548,N,07105.2234440,W,5,09,1.2,10.965,M,-28.728,M,0.8,0061*58
$GPGSA,A,3,10,18,23,24,,,,,,,,,2.3,1.2,2.0*3D
$GLGSA,A,3,65,72,75,81,,,,,,,,,2.3,1.2,2.0*23
$GAGSA,A,3,07,,,,,,,,,,,,2.3,1.2,2.0*24
$GBGSA,A,3,,,,,,,,,,,,,2.3,1.2,2.0*20
$GPGSV,1,1,04,10,49,311,46,18,38,193,43,23,82,047,46,24,60,075,45*77
$GLGSV,1,1,04,65,60,008,35,72,23,073,43,75,41,108,44,81,35,300,38*64
$GAGSV,1,1,01,07,76,002,42,,,,,,,,,,,,*5B
$GNVTG,11.57,T,,M,0.02,N,0.03,K,D*15
$GNGST,163744.80,4.223,,,,0.077,0.083,0.154*60
$GNZDA,163744.80,10,10,2023,00,00*70
$GNRMC,163745.80,A,4220.2363575,N,07105.2234213,W,0.50,11.57,101023,,,D*68
$GNGGA,163745.80,4220.2363575,N,07105.2234213,W,5,09,1.2,10.823,M,-28.728,M,0.8,0061*54
$GPGSA,A,3,10,18,23,24,,,,,,,,,2.4,1.2,2.1*3B
$GLGSA,A,3,72,75,81,,,,,,,,,,2.4,1.2,2.1*26
$GAGSA,A,3,07,13,,,,,,,,,,,2.4,1.2,2.1*20
$GBGSA,A,3,,,,,,,,,,,,,2.4,1.2,2.1*26
$GPGSV,1,1,04,10,49,311,46,18,38,193,43,23,82,047,46,24,60,075,45*77
$GLGSV,1,1,03,72,23,073,43,75,41,108,44,81,35,300,39,,,,*59
$GAGSV,1,1,02,07,76,002,42,13,20,178,35,,,,,,,,*60
$GNVTG,11.57,T,,M,0.50,N,0.92,K,D*1A
$GNGST,163745.80,4.314,,,,0.076,0.082,0.152*62
$GNZDA,163745.80,10,10,2023,00,00*71
$GNRMC,163746.80,A,4220.2363562,N,07105.2233983,W,0.04,11.57,101023,,,D*69
$GNGGA,163746.80,4220.2363562,N,07105.2233983,W,5,08,1.2,10.711,M,-28.728,M,0.8,0061*5B
$GPGSA,A,3,10,18,23,24,,,,,,,,,2.4,1.2,2.1*3B
$GLGSA,A,3,72,75,81,,,,,,,,,,2.4,1.2,2.1*26
$GAGSA,A,3,07,,,,,,,,,,,,2.4,1.2,2.1*22
$GBGSA,A,3,,,,,,,,,,,,,2.4,1.2,2.1*26
$GPGSV,1,1,04,10,49,311,46,18,38,193,43,23,82,047,46,24,60,075,45*77
$GLGSV,1,1,03,72,23,073,43,75,41,108,44,81,35,300,39,,,,*59
$GAGSV,1,1,01,07,76,002,42,,,,,,,,,,,,*5B
$GNVTG,11.57,T,,M,0.04,N,0.07,K,D*17
$GNGST,163746.80,4.601,,,,0.075,0.082,0.150*61
$GNZDA,163746.80,10,10,2023,00,00*72
$GNRMC,163747.80,A,4220.2363538,N,07105.2233814,W,0.01,11.57,101023,,,D*6D
$GNGGA,163747.80,4220.2363538,N,07105.2233814,W,5,08,1.2,10.627,M,-28.728,M,0.8,0061*5E
$GPGSA,A,3,10,18,23,24,,,,,,,,,2.4,1.2,2.1*3B
$GLGSA,A,3,72,75,81,,,,,,,,,,2.4,1.2,2.1*26
$GAGSA,A,3,07,,,,,,,,,,,,2.4,1.2,2.1*22
$GBGSA,A,3,,,,,,,,,,,,,2.4,1.2,2.1*26
$GPGSV,1,1,04,10,49,311,46,18,38,193,42,23,82,047,46,24,60,075,45*76
$GLGSV,1,1,03,72,23,073,43,75,41,108,44,81,35,300,38,,,,*58
$GAGSV,1,1,01,07,76,002,42,,,,,,,,,,,,*5B
$GNVTG,11.57,T,,M,0.01,N,0.03,K,D*16
$GNGST,163747.80,5.033,,,,0.075,0.081,0.149*6D
$GNZDA,163747.80,10,10,2023,00,00*73
$GNRMC,163748.80,A,4220.2363733,N,07105.2232788,W,0.07,11.57,101023,,,D*66
$GNGGA,163748.80,4220.2363733,N,07105.2232788,W,4,09,1.2,10.442,M,-28.728,M,0.8,0061*52
$GPGSA,A,3,10,18,23,24,,,,,,,,,2.3,1.2,2.0*3D
$GLGSA,A,3,65,72,75,81,,,,,,,,,2.3,1.2,2.0*23
$GAGSA,A,3,07,,,,,,,,,,,,2.3,1.2,2.0*24
$GBGSA,A,3,,,,,,,,,,,,,2.3,1.2,2.0*20
$GPGSV,1,1,04,10,50,311,46,18,38,193,42,23,82,047,46,24,60,075,45*7E
$GLGSV,1,1,04,65,60,009,35,72,23,073,43,75,41,108,44,81,35,300,39*64
$GAGSV,1,1,01,07,76,002,42,,,,,,,,,,,,*5B
$GNVTG,11.57,T,,M,0.07,N,0.13,K,D*11
$GNGST,163748.80,6.463,,,,0.010,0.008,0.025*69
$GNZDA,163748.80,10,10,2023,00,00*7C
$GNRMC,163749.80,A,4220.2363709,N,07105.2232798,W,0.06,11.57,101023,,,D*6E
$GNGGA,163749.80,4220.2363709,N,07105.2232798,W,4,10,1.2,10.446,M,-28.728,M,0.8,0061*57
$GPGSA,A,3,10,18,23,24,,,,,,,,,2.3,1.2,2.0*3D
$GLGSA,A,3,65,72,75,81,,,,,,,,,2.3,1.2,2.0*23
$GAGSA,A,3,07,13,,,,,,,,,,,2.3,1.2,2.0*26
$GBGSA,A,3,,,,,,,,,,,,,2.3,1.2,2.0*20
$GPGSV,1,1,04,10,50,311,46,18,38,193,42,23,82,047,46,24,60,075,45*7E
$GLGSV,1,1,04,65,60,009,35,72,23,073,43,75,41,108,44,81,35,300,39*64
$GAGSV,1,1,02,07,76,002,42,13,20,178,35,,,,,,,,*60
$GNVTG,11.57,T,,M,0.06,N,0.10,K,D*13
$GNGST,163749.80,7.015,,,,0.010,0.008,0.025*6C
$GNZDA,163749.80,10,10,2023,00,00*7D
$GNRMC,163750.80,A,4220.2363896,N,07105.2232726,W,0.07,11.57,101023,,,D*6B
$GNGGA,163750.80,4220.2363896,N,07105.2232726,W,5,10,1.2,10.232,M,-28.728,M,0.8,0061*57
$GPGSA,A,3,10,18,23,24,,,,,,,,,2.3,1.2,2.0*3D
$GLGSA,A,3,65,72,75,81,,,,,,,,,2.3,1.2,2.0*23
$GAGSA,A,3,07,13,,,,,,,,,,,2.3,1.2,2.0*26
$GBGSA,A,3,,,,,,,,,,,,,2.3,1.2,2.0*20
$GPGSV,1,1,04,10,50,311,47,18,38,193,42,23,82,047,46,24,60,075,46*7C
$GLGSV,1,1,04,65,60,009,36,72,23,073,43,75,41,108,44,81,35,300,39*67
$GAGSV,1,1,02,07,76,002,43,13,20,178,35,,,,,,,,*61
$GNVTG,11.57,T,,M,0.07,N,0.12,K,D*10
$GNGST,163750.80,7.217,,,,0.072,0.080,0.143*61
$GNZDA,163750.80,10,10,2023,00,00*75
$GNRMC,163751.80,A,4220.2364056,N,07105.2232348,W,0.02,11.57,101023,,,D*60
$GNGGA,163751.80,4220.2364056,N,07105.2232348,W,5,09,1.2,10.069,M,-28.728,M,0.8,0061*5D
$GPGSA,A,3,10,18,23,24,,,,,,,,,2.3,1.2,2.0*3D
$GLGSA,A,3,65,72,75,81,,,,,,,,,2.3,1.2,2.0*23
$GAGSA,A,3,07,,,,,,,,,,,,2.3,1.2,2.0*24
$GBGSA,A,3,,,,,,,,,,,,,2.3,1.2,2.0*20
$GPGSV,1,1,04,10,50,311,45,18,38,193,39,23,82,047,45,24,60,075,44*73
$GLGSV,1,1,04,65,60,009,36,72,23,073,42,75,41,108,44,81,35,300,38*67
$GAGSV,1,1,01,07,76,002,41,,,,,,,,,,,,*58
$GNVTG,11.57,T,,M,0.02,N,0.04,K,D*12
$GNGST,163751.80,7.634,,,,0.071,0.079,0.141*62
$GNZDA,163751.80,10,10,2023,00,00*74
$GNRMC,163752.80,A,4220.2364156,N,07105.2231921,W,0.03,11.57,101023,,,D*65
$GNGGA,163752.80,4220.2364156,N,07105.2231921,W,5,10,1.2,9.918,M,-28.728,M,0.8,0061*66
$GPGSA,A,3,10,18,23,24,,,,,,,,,2.3,1.2,2.0*3D
$GLGSA,A,3,65,72,75,81,,,,,,,,,2.3,1.2,2.0*23
$GAGSA,A,3,07,13,,,,,,,,,,,2.3,1.2,2.0*26
$GBGSA,A,3,,,,,,,,,,,,,2.3,1.2,2.0*20
$GPGSV,1,1,04,10,50,311,47,18,38,193,40,23,82,048,47,24,60,075,45*73
$GLGSV,1,1,04,65,60,009,36,72,23,073,42,75,41,108,45,81,35,300,38*66
$GAGSV,1,1,02,07,76,002,42,13,20,178,35,,,,,,,,*60
$GNVTG,11.57,T,,M,0.03,N,0.06,K,D*11
$GNGST,163752.80,8.026,,,,0.070,0.079,0.139*65
$GNZDA,163752.80,10,10,2023,00,00*77
$GNRMC,163753.80,A,4220.2364267,N,07105.2231575,W,0.02,11.57,101023,,,D*69
$GNGGA,163753.80,4220.2364267,N,07105.2231575,W,5,10,1.2,9.780,M,-28.728,M,0.8,0061*64
$GPGSA,A,3,10,18,23,24,,,,,,,,,2.3,1.2,2.0*3D
$GLGSA,A,3,65,72,75,81,,,,,,,,,2.3,1.2,2.0*23
$GAGSA,A,3,07,13,,,,,,,,,,,2.3,1.2,2.0*26
$GBGSA,A,3,,,,,,,,,,,,,2.3,1.2,2.0*20
$GPGSV,1,1,04,10,50,311,47,18,38,193,40,23,82,048,47,24,60,075,45*73
$GLGSV,1,1,04,65,60,009,37,72,23,073,42,75,41,108,45,81,35,300,37*68
$GAGSV,1,1,02,07,76,002,42,13,20,178,35,,,,,,,,*60
$GNVTG,11.57,T,,M,0.02,N,0.03,K,D*15
$GNGST,163753.80,8.078,,,,0.070,0.078,0.137*60
$GNZDA,163753.80,10,10,2023,00,00*76
$GNRMC,163754.80,A,4220.2364379,N,07105.2231230,W,0.08,11.57,101023,,,D*6C
$GNGGA,163754.80,4220.2364379,N,07105.2231230,W,5,09,1.2,9.634,M,-28.728,M,0.8,0061*6D
$GPGSA,A,3,10,18,23,24,,,,,,,,,2.3,1.2,2.0*3D
$GLGSA,A,3,65,72,75,81,,,,,,,,,2.3,1.2,2.0*23
$GAGSA,A,3,07,,,,,,,,,,,,2.3,1.2,2.0*24
$GBGSA,A,3,,,,,,,,,,,,,2.3,1.2,2.0*20
$GPGSV,1,1,04,10,50,311,45,18,38,193,38,23,82,048,44,24,60,075,43*7B
$GLGSV,1,1,04,65,60,009,36,72,23,073,41,75,41,108,42,81,35,300,37*6D
$GAGSV,1,1,01,07,76,002,41,,,,,,,,,,,,*58
$GNVTG,11.57,T,,M,0.08,N,0.14,K,D*19
$GNGST,163754.80,8.031,,,,0.069,0.078,0.135*60
$GNZDA,163754.80,10,10,2023,00,00*71
$GNRMC,163755.80,A,4220.2364415,N,07105.2230953,W,0.05,11.57,101023,,,D*62
$GNGGA,163755.80,4220.2364415,N,07105.2230953,W,5,09,1.2,9.505,M,-28.728,M,0.8,0061*6F
$GPGSA,A,3,10,18,23,24,,,,,,,,,2.3,1.2,2.0*3D
$GLGSA,A,3,65,72,75,81,,,,,,,,,2.3,1.2,2.0*23
$GAGSA,A,3,07,,,,,,,,,,,,2.3,1.2,2.0*24
$GBGSA,A,3,,,,,,,,,,,,,2.3,1.2,2.0*20
$GPGSV,1,1,04,10,50,311,45,18,38,193,38,23,82,048,45,24,60,075,44*7D
$GLGSV,1,1,04,65,60,009,36,72,23,073,42,75,41,108,44,81,35,300,37*68
$GAGSV,1,1,01,07,76,002,41,,,,,,,,,,,,*58
$GNVTG,11.57,T,,M,0.05,N,0.09,K,D*18
$GNGST,163755.80,7.948,,,,0.068,0.077,0.133*61
$GNZDA,163755.80,10,10,2023,00,00*70
$GNRMC,163756.80,A,4220.2364470,N,07105.2230640,W,0.03,11.57,101023,,,D*69
$GNGGA,163756.80,4220.2364470,N,07105.2230640,W,5,09,1.2,9.367,M,-28.728,M,0.8,0061*60
$GPGSA,A,3,10,18,23,24,,,,,,,,,2.3,1.2,2.0*3D
$GLGSA,A,3,65,72,75,81,,,,,,,,,2.3,1.2,2.0*23
$GAGSA,A,3,07,,,,,,,,,,,,2.3,1.2,2.0*24
$GBGSA,A,3,,,,,,,,,,,,,2.3,1.2,2.0*20
$GPGSV,1,1,04,10,50,311,46,18,38,193,39,23,82,048,46,24,60,075,44*7C
$GLGSV,1,1,04,65,60,009,37,72,23,073,42,75,41,108,45,81,35,300,37*68
$GAGSV,1,1,01,07,76,002,42,,,,,,,,,,,,*5B
$GNVTG,11.57,T,,M,0.03,N,0.05,K,D*12
$GNGST,163756.80,7.808,,,,0.067,0.077,0.131*6A
$GNZDA,163756.80,10,10,2023,00,00*73
$GNRMC,163757.80,A,4220.2364544,N,07105.2230341,W,0.04,11.57,101023,,,D*6D
$GNGGA,163757.80,4220.2364544,N,07105.2230341,W,5,09,1.2,9.219,M,-28.728,M,0.8,0061*6B
$GPGSA,A,3,10,18,23,24,,,,,,,,,2.3,1.2,2.0*3D
$GLGSA,A,3,65,72,75,81,,,,,,,,,2.3,1.2,2.0*23
$GAGSA,A,3,07,,,,,,,,,,,,2.3,1.2,2.0*24
$GBGSA,A,3,,,,,,,,,,,,,2.3,1.2,2.0*20
$GPGSV,1,1,04,10,50,311,46,18,38,193,39,23,82,048,46,24,60,075,44*7C
$GLGSV,1,1,04,65,60,009,38,72,23,073,42,75,41,108,45,81,35,300,37*67
$GAGSV,1,1,01,07,76,002,41,,,,,,,,,,,,*58
$GNVTG,11.57,T,,M,0.04,N,0.07,K,D*17
$GNGST,163757.80,7.595,,,,0.066,0.076,0.129*6B
$GNZDA,163757.80,10,10,2023,00,00*72
$GNRMC,163758.80,A,4220.2364582,N,07105.2230075,W,0.03,11.57,101023,,,D*6B
$GNGGA,163758.80,4220.2364582,N,07105.2230075,W,5,09,1.2,9.085,M,-28.728,M,0.8,0061*6D
$GPGSA,A,3,10,18,23,24,,,,,,,,,2.3,1.2,2.0*3D
$GLGSA,A,3,65,72,75,81,,,,,,,,,2.3,1.2,2.0*23
$GAGSA,A,3,07,,,,,,,,,,,,2.3,1.2,2.0*24
$GBGSA,A,3,,,,,,,,,,,,,2.3,1.2,2.0*20
$GPGSV,1,1,04,10,50,311,46,18,38,193,39,23,82,048,46,24,60,075,44*7C
$GLGSV,1,1,04,65,60,009,38,72,23,073,41,75,41,108,45,81,35,300,37*64
$GAGSV,1,1,01,07,76,002,41,,,,,,,,,,,,*58
$GNVTG,11.57,T,,M,0.03,N,0.05,K,D*12
$GNGST,163758.80,7.218,,,,0.066,0.076,0.127*68
$GNZDA,163758.80,10,10,2023,00,00*7D
$GNRMC,163759.80,A,4220.2364586,N,07105.2229762,W,0.07,11.57,101023,,,D*63
$GNGGA,163759.80,4220.2364586,N,07105.2229762,W,5,09,1.2,8.952,M,-28.728,M,0.8,0061*63
$GPGSA,A,3,10,18,23,24,,,,,,,,,2.3,1.2,2.0*3D
$GLGSA,A,3,65,72,75,81,,,,,,,,,2.3,1.2,2.0*23
$GAGSA,A,3,07,,,,,,,,,,,,2.3,1.2,2.0*24
$GBGSA,A,3,,,,,,,,,,,,,2.3,1.2,2.0*20
$GPGSV,1,1,04,10,50,311,45,18,38,193,39,23,82,048,46,24,60,075,44*7F
$GLGSV,1,1,04,65,60,009,38,72,23,073,41,75,41,108,45,81,35,300,37*64
$GAGSV,1,1,01,07,76,002,41,,,,,,,,,,,,*58
$GNVTG,11.57,T,,M,0.07,N,0.13,K,D*11
$GNGST,163759.80,6.960,,,,0.065,0.075,0.126*6D
$GNZDA,163759.80,10,10,2023,00,00*7C
$GNRMC,163800.80,A,4220.2364516,N,07105.2229647,W,0.01,11.57,101023,,,D*69
$GNGGA,163800.80,4220.2364516,N,07105.2229647,W,4,09,1.2,8.730,M,-28.728,M,0.8,0061*64
$GPGSA,A,3,10,18,23,24,,,,,,,,,2.3,1.2,2.0*3D
$GLGSA,A,3,65,72,75,81,,,,,,,,,2.3,1.2,2.0*23
$GAGSA,A,3,07,,,,,,,,,,,,2.3,1.2,2.0*24
$GBGSA,A,3,,,,,,,,,,,,,2.3,1.2,2.0*20
$GPGSV,1,1,04,10,50,311,46,18,38,193,39,23,82,048,46,24,60,075,44*7C
$GLGSV,1,1,04,65,60,009,38,72,23,073,42,75,41,108,44,81,35,300,36*67
$GAGSV,1,1,01,07,76,002,41,,,,,,,,,,,,*58
$GNVTG,11.57,T,,M,0.01,N,0.03,K,D*16
$GNGST,163800.80,6.594,,,,0.010,0.008,0.025*63
$GNZDA,163800.80,10,10,2023,00,00*7F
$GNRMC,163801.80,A,4220.2364513,N,07105.2229674,W,0.02,11.57,101023,,,D*6E
$GNGGA,163801.80,4220.2364513,N,07105.2229674,W,4,10,1.2,8.742,M,-28.728,M,0.8,0061*6D
$GPGSA,A,3,10,18,23,24,,,,,,,,,2.3,1.2,2.0*3D
$GLGSA,A,3,65,72,75,81,,,,,,,,,2.3,1.2,2.0*23
$GAGSA,A,3,07,13,,,,,,,,,,,2.3,1.2,2.0*26
$GBGSA,A,3,,,,,,,,,,,,,2.3,1.2,2.0*20
$GPGSV,1,1,04,10,50,311,46,18,38,193,40,23,82,048,46,24,60,075,45*73
$GLGSV,1,1,04,65,60,009,38,72,23,073,42,75,41,108,44,81,35,300,36*67
$GAGSV,1,1,02,07,76,002,42,13,20,178,35,,,,,,,,*60
$GNVTG,11.57,T,,M,0.02,N,0.04,K,D*12
$GNGST,163801.80,6.151,,,,0.010,0.008,0.025*6F
$GNZDA,163801.80,10,10,2023,00,00*7E
$GNRMC,163802.80,A,4220.2364658,N,07105.2228994,W,0.02,11.57,101023,,,D*61
$GNGGA,163802.80,4220.2364658,N,07105.2228994,W,5,10,1.2,8.582,M,-28.728,M,0.8,0061*6D
$GPGSA,A,3,10,18,23,24,,,,,,,,,2.3,1.2,2.0*3D
$GLGSA,A,3,65,72,75,81,,,,,,,,,2.3,1.2,2.0*23
$GAGSA,A,3,07,13,,,,,,,,,,,2.3,1.2,2.0*26
$GBGSA,A,3,,,,,,,,,,,,,2.3,1.2,2.0*20
$GPGSV,1,1,04,10,50,311,47,18,38,193,42,23,82,048,48,24,60,075,47*7C
$GLGSV,1,1,04,65,60,009,38,72,23,073,40,75,41,108,45,81,35,300,36*64
$GAGSV,1,1,02,07,76,002,43,13,20,178,36,,,,,,,,*62
$GNVTG,11.57,T,,M,0.02,N,0.04,K,D*12
$GNGST,163802.80,5.802,,,,0.063,0.074,0.121*6A
$GNZDA,163802.80,10,10,2023,00,00*7D
$GNRMC,163803.80,A,4220.2364746,N,07105.2228801,W,0.05,11.57,101023,,,D*64
$GNGGA,163803.80,4220.2364746,N,07105.2228801,W,5,10,1.2,8.467,M,-28.728,M,0.8,0061*65
