$GNRMC,161702.80,A,4220.3417062,N,07105.0917533,W,0.05,312.95,101023,,,D*5C
$GNGGA,161702.80,4220.3417062,N,07105.0917533,W,5,15,1.0,4.112,M,-28.723,M,0.8,0061*64
$GPGSA,A,3,10,15,18,23,24,32,,,,,,,2.0,1.0,1.8*32
$GLGSA,A,3,65,66,75,81,88,,,,,,,,2.0,1.0,1.8*2C
$GAGSA,A,3,07,08,13,26,,,,,,,,,2.0,1.0,1.8*20
$GBGSA,A,3,,,,,,,,,,,,,2.0,1.0,1.8*2A
$GPGSV,2,1,06,10,41,307,46,15,40,063,37,18,48,197,45,23,78,350,47*7F
$GPGSV,2,2,06,24,63,096,46,32,18,254,42,,,,,,,,*7C
$GLGSV,2,1,05,65,60,345,45,66,24,284,42,75,32,118,39,81,32,313,45*62
$GLGSV,2,2,05,88,41,242,47,,,,,,,,,,,,*52
$GAGSV,1,1,04,07,78,329,44,08,35,058,35,13,28,178,42,26,59,247,43*67
$GNVTG,312.95,T,,M,0.05,N,0.09,K,D*26
$GNGST,161702.80,1.773,,,,0.020,0.026,0.041*6D
$GNZDA,161702.80,10,10,2023,00,00*70
$GNRMC,161703.80,A,4220.3417103,N,07105.0917535,W,0.03,312.95,101023,,,D*5B
$GNGGA,161703.80,4220.3417103,N,07105.0917535,W,5,17,0.9,4.108,M,-28.723,M,0.8,0061*64
$GPGSA,A,3,10,15,18,23,24,32,,,,,,,1.8,0.9,1.6*3F
$GLGSA,A,3,65,66,72,75,81,88,,,,,,,1.8,0.9,1.6*24
$GAGSA,A,3,07,08,13,26,,,,,,,,,1.8,0.9,1.6*2D
$GBGSA,A,3,,,,,,,,,,,,,1.8,0.9,1.6*27
$GPGSV,2,1,06,10,41,307,46,15,40,063,42,18,48,197,45,23,78,350,47*7D
$GPGSV,2,2,06,24,63,095,46,32,18,254,41,,,,,,,,*7C
$GLGSV,2,1,06,65,60,345,45,66,24,284,42,72,30,063,40,75,32,118,39*6E
$GLGSV,2,2,06,81,32,313,45,88,41,242,47,,,,,,,,*69
$GAGSV,1,1,04,07,78,329,44,08,35,058,37,13,28,178,42,26,59,247,44*62
$GNVTG,312.95,T,,M,0.03,N,0.05,K,D*2C
$GNGST,161703.80,1.730,,,,0.020,0.026,0.040*6A
$GNZDA,161703.80,10,10,2023,00,00*71
$GNRMC,161704.80,A,4220.3417089,N,07105.0917467,W,0.03,312.95,101023,,,D*59
$GNGGA,161704.80,4220.3417089,N,07105.0917467,W,5,17,0.9,4.096,M,-28.723,M,0.8,0061*60
$GPGSA,A,3,10,15,18,23,24,32,,,,,,,1.8,0.9,1.6*3F
$GLGSA,A,3,65,66,72,75,81,88,,,,,,,1.8,0.9,1.6*24
$GAGSA,A,3,07,08,13,26,,,,,,,,,1.8,0.9,1.6*2D
$GBGSA,A,3,,,,,,,,,,,,,1.8,0.9,1.6*27
$GPGSV,2,1,06,10,41,307,46,15,40,063,43,18,48,197,45,23,78,350,47*7C
$GPGSV,2,2,06,24,63,095,46,32,18,254,41,,,,,,,,*7C
$GLGSV,2,1,06,65,60,345,44,66,24,284,42,72,30,063,39,75,32,118,43*6C
$GLGSV,2,2,06,81,32,313,45,88,41,242,47,,,,,,,,*69
$GAGSV,1,1,04,07,78,329,44,08,35,058,37,13,28,178,42,26,59,247,43*65
$GNVTG,312.95,T,,M,0.03,N,0.05,K,D*2C
$GNGST,161704.80,1.631,,,,0.020,0.026,0.040*6D
$GNZDA,161704.80,10,10,2023,00,00*76
$GNRMC,161705.80,A,4220.3417108,N,07105.0917484,W,0.02,312.95,101023,,,D*5C
$GNGGA,161705.80,4220.3417108,N,07105.0917484,W,5,18,0.9,4.102,M,-28.723,M,0.8,0061*67
$GPGSA,A,3,10,15,18,23,24,32,,,,,,,1.8,0.9,1.6*3F
$GLGSA,A,3,65,66,72,74,75,81,88,,,,,,1.8,0.9,1.6*27
$GAGSA,A,3,07,08,13,26,,,,,,,,,1.8,0.9,1.6*2D
$GBGSA,A,3,,,,,,,,,,,,,1.8,0.9,1.6*27
$GPGSV,2,1,06,10,41,307,46,15,40,063,43,18,48,197,45,23,78,350,47*7C
$GPGSV,2,2,06,24,63,095,46,32,18,254,41,,,,,,,,*7C
$GLGSV,2,1,07,65,60,345,44,66,24,284,42,72,30,063,41,74,30,052,35*6F
$GLGSV,2,2,07,75,33,118,43,81,32,313,45,88,41,242,47,,,,*55
$GAGSV,1,1,04,07,78,329,44,08,35,058,38,13,28,178,42,26,59,247,43*6A
$GNVTG,312.95,T,,M,0.02,N,0.04,K,D*2C
$GNGST,161705.80,1.830,,,,0.020,0.026,0.040*63
$GNZDA,161705.80,10,10,2023,00,00*77
$GNRMC,161706.80,A,4220.3417112,N,07105.0917457,W,0.01,312.95,101023,,,D*59
$GNGGA,161706.80,4220.3417112,N,07105.0917457,W,5,18,0.9,4.104,M,-28.723,M,0.8,0061*67
$GPGSA,A,3,10,15,18,23,24,32,,,,,,,1.8,0.9,1.6*3F
$GLGSA,A,3,65,66,72,74,75,81,88,,,,,,1.8,0.9,1.6*27
$GAGSA,A,3,07,08,13,26,,,,,,,,,1.8,0.9,1.6*2D
$GBGSA,A,3,,,,,,,,,,,,,1.8,0.9,1.6*27
$GPGSV,2,1,06,10,41,307,46,15,40,063,43,18,48,197,45,23,78,350,47*7C
$GPGSV,2,2,06,24,63,095,46,32,18,254,41,,,,,,,,*7C
$GLGSV,2,1,07,65,60,345,44,66,24,284,42,72,30,063,42,74,30,052,36*6F
$GLGSV,2,2,07,75,33,118,43,81,32,313,45,88,41,242,47,,,,*55
$GAGSV,1,1,04,07,78,329,44,08,35,058,38,13,28,178,42,26,59,247,43*6A
$GNVTG,312.95,T,,M,0.01,N,0.02,K,D*29
$GNGST,161706.80,1.958,,,,0.021,0.026,0.040*6E
$GNZDA,161706.80,10,10,2023,00,00*74
$GNRMC,161707.80,A,4220.3417111,N,07105.0917448,W,0.03,312.95,101023,,,D*57
$GNGGA,161707.80,4220.3417111,N,07105.0917448,W,5,18,0.9,4.107,M,-28.723,M,0.8,0061*68
$GPGSA,A,3,10,15,18,23,24,32,,,,,,,1.8,0.9,1.6*3F
$GLGSA,A,3,65,66,72,74,75,81,88,,,,,,1.8,0.9,1.6*27
$GAGSA,A,3,07,08,13,26,,,,,,,,,1.8,0.9,1.6*2D
$GBGSA,A,3,,,,,,,,,,,,,1.8,0.9,1.6*27
$GPGSV,2,1,06,10,41,307,46,15,40,063,43,18,48,197,45,23,78,350,47*7C
$GPGSV,2,2,06,24,63,095,46,32,18,254,41,,,,,,,,*7C
$GLGSV,2,1,07,65,60,345,44,66,24,284,43,72,30,063,40,74,30,052,36*6C
$GLGSV,2,2,07,75,33,118,42,81,32,313,45,88,41,242,47,,,,*54
$GAGSV,1,1,04,07,78,329,44,08,35,058,39,13,28,178,42,26,59,247,43*6B
$GNVTG,312.95,T,,M,0.03,N,0.05,K,D*2C
$GNGST,161707.80,1.916,,,,0.020,0.025,0.040*67
$GNZDA,161707.80,10,10,2023,00,00*75
$GNRMC,161708.80,A,4220.3417104,N,07105.0917425,W,0.02,312.95,101023,,,D*56
$GNGGA,161708.80,4220.3417104,N,07105.0917425,W,5,18,0.9,4.106,M,-28.723,M,0.8,0061*69
$GPGSA,A,3,10,15,18,23,24,32,,,,,,,1.8,0.9,1.6*3F
$GLGSA,A,3,65,66,72,74,75,81,88,,,,,,1.8,0.9,1.6*27
$GAGSA,A,3,07,08,13,26,,,,,,,,,1.8,0.9,1.6*2D
$GBGSA,A,3,,,,,,,,,,,,,1.8,0.9,1.6*27
$GPGSV,2,1,06,10,41,307,46,15,40,063,43,18,48,197,44,23,78,350,47*7D
$GPGSV,2,2,06,24,63,095,46,32,18,254,41,,,,,,,,*7C
$GLGSV,2,1,07,65,60,345,44,66,24,284,43,72,30,063,40,74,30,052,35*6F
$GLGSV,2,2,07,75,33,118,42,81,32,313,45,88,41,242,47,,,,*54
$GAGSV,1,1,04,07,78,329,44,08,34,058,39,13,28,178,42,26,59,247,43*6A
$GNVTG,312.95,T,,M,0.02,N,0.04,K,D*2C
$GNGST,161708.80,1.824,,,,0.020,0.025,0.040*68
$GNZDA,161708.80,10,10,2023,00,00*7A
$GNRMC,161709.80,A,4220.3417126,N,07105.0917414,W,0.05,312.95,101023,,,D*52
$GNGGA,161709.80,4220.3417126,N,07105.0917414,W,5,18,0.9,4.109,M,-28.723,M,0.8,0061*65
$GPGSA,A,3,10,15,18,23,24,32,,,,,,,1.8,0.9,1.6*3F
$GLGSA,A,3,65,66,72,74,75,81,88,,,,,,1.8,0.9,1.6*27
$GAGSA,A,3,07,08,13,26,,,,,,,,,1.8,0.9,1.6*2D
$GBGSA,A,3,,,,,,,,,,,,,1.8,0.9,1.6*27
$GPGSV,2,1,06,10,41,307,46,15,40,063,43,18,48,197,44,23,78,350,47*7D
$GPGSV,2,2,06,24,63,095,46,32,19,254,41,,,,,,,,*7D
$GLGSV,2,1,07,65,60,345,44,66,24,284,43,72,30,063,40,74,30,052,35*6F
$GLGSV,2,2,07,75,33,118,42,81,32,313,45,88,41,242,47,,,,*54
$GAGSV,1,1,04,07,78,329,44,08,34,058,39,13,28,178,42,26,59,247,43*6A
$GNVTG,312.95,T,,M,0.05,N,0.09,K,D*26
$GNGST,161709.80,1.955,,,,0.020,0.025,0.040*6E
$GNZDA,161709.80,10,10,2023,00,00*7B
$GNRMC,161710.80,A,4220.3417134,N,07105.0917411,W,0.02,312.95,101023,,,D*5B
$GNGGA,161710.80,4220.3417134,N,07105.0917411,W,5,18,0.9,4.111,M,-28.723,M,0.8,0061*62
$GPGSA,A,3,10,15,18,23,24,32,,,,,,,1.8,0.9,1.6*3F
$GLGSA,A,3,65,66,72,74,75,81,88,,,,,,1.8,0.9,1.6*27
$GAGSA,A,3,07,08,13,26,,,,,,,,,1.8,0.9,1.6*2D
$GBGSA,A,3,,,,,,,,,,,,,1.8,0.9,1.6*27
$GPGSV,2,1,06,10,41,307,46,15,40,063,43,18,48,197,44,23,78,350,47*7D
$GPGSV,2,2,06,24,63,095,46,32,19,254,41,,,,,,,,*7D
$GLGSV,2,1,07,65,60,345,44,66,24,284,43,72,30,063,40,74,30,052,35*6F
$GLGSV,2,2,07,75,33,118,42,81,32,313,45,88,41,242,47,,,,*54
$GAGSV,1,1,04,07,78,329,44,08,34,058,39,13,28,178,42,26,59,247,43*6A
$GNVTG,312.95,T,,M,0.02,N,0.04,K,D*2C
$GNGST,161710.80,1.941,,,,0.020,0.025,0.040*63
$GNZDA,161710.80,10,10,2023,00,00*73
$GNRMC,161711.80,A,4220.3417147,N,07105.0917388,W,0.02,312.95,101023,,,D*59
$GNGGA,161711.80,4220.3417147,N,07105.0917388,W,5,18,0.9,4.112,M,-28.723,M,0.8,0061*63
$GPGSA,A,3,10,15,18,23,24,32,,,,,,,1.8,0.9,1.6*3F
$GLGSA,A,3,65,66,72,74,75,81,88,,,,,,1.8,0.9,1.6*27
$GAGSA,A,3,07,08,13,26,,,,,,,,,1.8,0.9,1.6*2D
$GBGSA,A,3,,,,,,,,,,,,,1.8,0.9,1.6*27
$GPGSV,2,1,06,10,41,307,46,15,40,063,43,18,48,197,44,23,78,350,47*7D
$GPGSV,2,2,06,24,63,095,46,32,19,254,41,,,,,,,,*7D
$GLGSV,2,1,07,65,60,345,44,66,24,284,43,72,30,063,40,74,30,052,35*6F
$GLGSV,2,2,07,75,33,118,42,81,32,313,45,88,41,242,47,,,,*54
$GAGSV,1,1,04,07,78,329,44,08,34,058,39,13,28,178,42,26,59,247,43*6A
$GNVTG,312.95,T,,M,0.02,N,0.03,K,D*2B
$GNGST,161711.80,1.982,,,,0.020,0.025,0.040*6D
$GNZDA,161711.80,10,10,2023,00,00*72
$GNRMC,161712.80,A,4220.3417151,N,07105.0917386,W,0.01,312.95,101023,,,D*50
$GNGGA,161712.80,4220.3417151,N,07105.0917386,W,5,18,0.9,4.120,M,-28.723,M,0.8,0061*68
$GPGSA,A,3,10,15,18,23,24,32,,,,,,,1.8,0.9,1.6*3F
$GLGSA,A,3,65,66,72,74,75,81,88,,,,,,1.8,0.9,1.6*27
$GAGSA,A,3,07,08,13,26,,,,,,,,,1.8,0.9,1.6*2D
$GBGSA,A,3,,,,,,,,,,,,,1.8,0.9,1.6*27
$GPGSV,2,1,06,10,41,307,45,15,40,063,43,18,48,197,45,23,78,350,47*7F
$GPGSV,2,2,06,24,63,095,46,32,19,254,41,,,,,,,,*7D
$GLGSV,2,1,07,65,60,345,44,66,24,284,42,72,30,063,40,74,30,052,35*6E
$GLGSV,2,2,07,75,33,118,42,81,32,313,45,88,41,242,46,,,,*55
$GAGSV,1,1,04,07,78,329,44,08,34,058,39,13,28,178,42,26,59,247,43*6A
$GNVTG,312.95,T,,M,0.01,N,0.03,K,D*28
$GNGST,161712.80,2.001,,,,0.020,0.025,0.040*6F
$GNZDA,161712.80,10,10,2023,00,00*71
$GNRMC,161713.80,A,4220.3417151,N,07105.0917372,W,0.02,312.95,101023,,,D*59
$GNGGA,161713.80,4220.3417151,N,07105.0917372,W,5,18,0.9,4.120,M,-28.723,M,0.8,0061*62
$GPGSA,A,3,10,15,18,23,24,32,,,,,,,1.8,0.9,1.6*3F
$GLGSA,A,3,65,66,72,74,75,81,88,,,,,,1.8,0.9,1.6*27
$GAGSA,A,3,07,08,13,26,,,,,,,,,1.8,0.9,1.6*2D
$GBGSA,A,3,,,,,,,,,,,,,1.8,0.9,1.6*27
$GPGSV,2,1,06,10,41,307,45,15,40,063,43,18,48,197,45,23,78,350,47*7F
$GPGSV,2,2,06,24,63,095,46,32,19,254,41,,,,,,,,*7D
$GLGSV,2,1,07,65,60,345,44,66,24,284,42,72,30,063,40,74,30,052,35*6E
$GLGSV,2,2,07,75,33,118,42,81,32,313,45,88,41,242,46,,,,*55
$GAGSV,1,1,04,07,78,329,44,08,34,058,39,13,28,178,42,26,59,247,43*6A
$GNVTG,312.95,T,,M,0.02,N,0.03,K,D*2B
$GNGST,161713.80,1.952,,,,0.020,0.025,0.040*62
$GNZDA,161713.80,10,10,2023,00,00*70
$GNRMC,161714.80,A,4220.3417144,N,07105.0917373,W,0.02,312.95,101023,,,D*5B
$GNGGA,161714.80,4220.3417144,N,07105.0917373,W,5,18,0.9,4.119,M,-28.723,M,0.8,0061*6A
$GPGSA,A,3,10,15,18,23,24,32,,,,,,,1.8,0.9,1.6*3F
$GLGSA,A,3,65,66,72,74,75,81,88,,,,,,1.8,0.9,1.6*27
$GAGSA,A,3,07,08,13,26,,,,,,,,,1.8,0.9,1.6*2D
$GBGSA,A,3,,,,,,,,,,,,,1.8,0.9,1.6*27
$GPGSV,2,1,06,10,41,307,46,15,40,063,43,18,48,197,45,23,78,350,47*7C
$GPGSV,2,2,06,24,63,095,46,32,19,254,41,,,,,,,,*7D
$GLGSV,2,1,07,65,60,346,44,66,24,284,42,72,30,063,40,74,30,052,35*6D
$GLGSV,2,2,07,75,33,118,42,81,32,313,45,88,41,242,46,,,,*55
$GAGSV,1,1,04,07,78,329,44,08,34,059,39,13,28,178,42,26,59,247,43*6B
$GNVTG,312.95,T,,M,0.02,N,0.04,K,D*2C
$GNGST,161714.80,2.039,,,,0.020,0.025,0.040*62
$GNZDA,161714.80,10,10,2023,00,00*77
$GNRMC,161715.80,A,4220.3417142,N,07105.0917368,W,0.00,312.95,101023,,,D*54
$GNGGA,161715.80,4220.3417142,N,07105.0917368,W,5,18,0.9,4.128,M,-28.723,M,0.8,0061*65
$GPGSA,A,3,10,15,18,23,24,32,,,,,,,1.8,0.9,1.6*3F
$GLGSA,A,3,65,66,72,74,75,81,88,,,,,,1.8,0.9,1.6*27
$GAGSA,A,3,07,08,13,26,,,,,,,,,1.8,0.9,1.6*2D
$GBGSA,A,3,,,,,,,,,,,,,1.8,0.9,1.6*27
$GPGSV,2,1,06,10,41,307,46,15,40,063,43,18,48,197,45,23,78,350,47*7C
$GPGSV,2,2,06,24,63,095,46,32,19,254,41,,,,,,,,*7D
$GLGSV,2,1,07,65,60,346,44,66,24,284,42,72,30,063,41,74,30,052,35*6C
$GLGSV,2,2,07,75,33,118,42,81,32,313,45,88,41,242,47,,,,*54
$GAGSV,1,1,04,07,78,329,44,08,34,059,39,13,28,178,42,26,59,247,43*6B
$GNVTG,312.95,T,,M,0.00,N,0.01,K,D*2B
$GNGST,161715.80,2.242,,,,0.020,0.025,0.040*6D
$GNZDA,161715.80,10,10,2023,00,00*76
$GNRMC,161716.80,A,4220.3417163,N,07105.0917330,W,0.03,312.95,101023,,,D*5A
$GNGGA,161716.80,4220.3417163,N,07105.0917330,W,5,18,0.9,4.125,M,-28.723,M,0.8,0061*65
$GPGSA,A,3,10,15,18,23,24,32,,,,,,,1.8,0.9,1.6*3F
$GLGSA,A,3,65,66,72,74,75,81,88,,,,,,1.8,0.9,1.6*27
$GAGSA,A,3,07,08,13,26,,,,,,,,,1.8,0.9,1.6*2D
$GBGSA,A,3,,,,,,,,,,,,,1.8,0.9,1.6*27
$GPGSV,2,1,06,10,41,307,46,15,40,063,43,18,48,197,45,23,78,350,47*7C
$GPGSV,2,2,06,24,63,095,46,32,19,254,41,,,,,,,,*7D
$GLGSV,2,1,07,65,60,346,44,66,24,284,42,72,30,063,41,74,30,052,35*6C
$GLGSV,2,2,07,75,33,118,42,81,32,313,45,88,41,242,47,,,,*54
$GAGSV,1,1,04,07,78,329,44,08,34,059,39,13,28,178,42,26,59,247,43*6B
$GNVTG,312.95,T,,M,0.03,N,0.06,K,D*2F
$GNGST,161716.80,2.410,,,,0.020,0.025,0.040*6F
$GNZDA,161716.80,10,10,2023,00,00*75
$GNRMC,161717.80,A,4220.3417161,N,07105.0917309,W,0.02,312.95,101023,,,D*52
$GNGGA,161717.80,4220.3417161,N,07105.0917309,W,5,18,0.9,4.126,M,-28.723,M,0.8,0061*6F
$GPGSA,A,3,10,15,18,23,24,32,,,,,,,1.8,0.9,1.6*3F
$GLGSA,A,3,65,66,72,74,75,81,88,,,,,,1.8,0.9,1.6*27
$GAGSA,A,3,07,08,13,26,,,,,,,,,1.8,0.9,1.6*2D
$GBGSA,A,3,,,,,,,,,,,,,1.8,0.9,1.6*27
$GPGSV,2,1,06,10,41,307,46,15,40,063,43,18,48,197,45,23,78,350,47*7C
$GPGSV,2,2,06,24,63,095,46,32,19,254,41,,,,,,,,*7D
$GLGSV,2,1,07,65,60,346,44,66,24,284,42,72,30,063,41,74,30,052,35*6C
$GLGSV,2,2,07,75,33,118,42,81,32,313,45,88,41,242,47,,,,*54
$GAGSV,1,1,04,07,78,329,44,08,34,059,39,13,28,178,42,26,59,247,43*6B
$GNVTG,312.95,T,,M,0.02,N,0.04,K,D*2C
$GNGST,161717.80,2.473,,,,0.019,0.024,0.039*6E
$GNZDA,161717.80,10,10,2023,00,00*74
$GNRMC,161718.80,A,4220.3417177,N,07105.0917307,W,0.02,312.95,101023,,,D*54
$GNGGA,161718.80,4220.3417177,N,07105.0917307,W,5,18,0.9,4.133,M,-28.723,M,0.8,0061*6D
$GPGSA,A,3,10,15,18,23,24,32,,,,,,,1.8,0.9,1.6*3F
$GLGSA,A,3,65,66,72,74,75,81,88,,,,,,1.8,0.9,1.6*27
$GAGSA,A,3,07,08,13,26,,,,,,,,,1.8,0.9,1.6*2D
$GBGSA,A,3,,,,,,,,,,,,,1.8,0.9,1.6*27
$GPGSV,2,1,06,10,41,307,46,15,40,063,43,18,48,197,45,23,78,350,47*7C
$GPGSV,2,2,06,24,63,095,46,32,19,254,41,,,,,,,,*7D
$GLGSV,2,1,07,65,60,346,44,66,24,284,42,72,30,063,41,74,30,052,35*6C
$GLGSV,2,2,07,75,33,118,42,81,32,313,45,88,41,242,46,,,,*55
$GAGSV,1,1,04,07,78,329,44,08,34,059,39,13,28,178,42,26,59,247,43*6B
$GNVTG,312.95,T,,M,0.02,N,0.04,K,D*2C
$GNGST,161718.80,2.658,,,,0.019,0.024,0.039*6A
$GNZDA,161718.80,10,10,2023,00,00*7B
$GNRMC,161719.80,A,4220.3417180,N,07105.0917297,W,0.01,312.95,101023,,,D*56
$GNGGA,161719.80,4220.3417180,N,07105.0917297,W,5,18,0.9,4.136,M,-28.723,M,0.8,0061*69
$GPGSA,A,3,10,15,18,23,24,32,,,,,,,1.8,0.9,1.6*3F
$GLGSA,A,3,65,66,72,74,75,81,88,,,,,,1.8,0.9,1.6*27
$GAGSA,A,3,07,08,13,26,,,,,,,,,1.8,0.9,1.6*2D
$GBGSA,A,3,,,,,,,,,,,,,1.8,0.9,1.6*27
$GPGSV,2,1,06,10,41,307,46,15,40,063,43,18,48,197,45,23,78,350,47*7C
$GPGSV,2,2,06,24,63,095,46,32,19,254,41,,,,,,,,*7D
$GLGSV,2,1,07,65,60,346,44,66,24,284,42,72,30,063,41,74,30,052,35*6C
$GLGSV,2,2,07,75,33,118,42,81,32,313,45,88,41,242,46,,,,*55
$GAGSV,1,1,04,07,78,329,44,08,34,059,39,13,28,178,42,26,59,247,43*6B
$GNVTG,312.95,T,,M,0.01,N,0.01,K,D*2A
$GNGST,161719.80,2.641,,,,0.019,0.024,0.039*63
$GNZDA,161719.80,10,10,2023,00,00*7A
$GNRMC,161720.80,A,4220.3417188,N,07105.0917296,W,0.05,312.95,101023,,,D*51
$GNGGA,161720.80,4220.3417188,N,07105.0917296,W,5,18,0.9,4.137,M,-28.723,M,0.8,0061*6B
$GPGSA,A,3,10,15,18,23,24,32,,,,,,,1.8,0.9,1.6*3F
$GLGSA,A,3,65,66,72,74,75,81,88,,,,,,1.8,0.9,1.6*27
$GAGSA,A,3,07,08,13,26,,,,,,,,,1.8,0.9,1.6*2D
$GBGSA,A,3,,,,,,,,,,,,,1.8,0.9,1.6*27
$GPGSV,2,1,06,10,41,307,46,15,40,063,43,18,48,197,45,23,78,350,47*7C
$GPGSV,2,2,06,24,63,095,46,32,19,254,41,,,,,,,,*7D
$GLGSV,2,1,07,65,60,346,44,66,24,284,42,72,30,063,41,74,30,052,35*6C
$GLGSV,2,2,07,75,33,118,42,81,32,313,45,88,41,242,46,,,,*55
$GAGSV,1,1,04,07,78,329,44,08,34,059,39,13,28,178,42,26,59,247,43*6B
$GNVTG,312.95,T,,M,0.05,N,0.08,K,D*27
$GNGST,161720.80,2.581,,,,0.019,0.024,0.039*66
$GNZDA,161720.80,10,10,2023,00,00*70
$GNRMC,161721.80,A,4220.3417185,N,07105.0917283,W,0.02,312.95,101023,,,D*5E
$GNGGA,161721.80,4220.3417185,N,07105.0917283,W,5,18,0.9,4.139,M,-28.723,M,0.8,0061*6D
$GPGSA,A,3,10,15,18,23,24,32,,,,,,,1.8,0.9,1.6*3F
$GLGSA,A,3,65,66,72,74,75,81,88,,,,,,1.8,0.9,1.6*27
$GAGSA,A,3,07,08,13,26,,,,,,,,,1.8,0.9,1.6*2D
$GBGSA,A,3,,,,,,,,,,,,,1.8,0.9,1.6*27
$GPGSV,2,1,06,10,41,307,46,15,40,063,43,18,48,197,45,23,78,350,47*7C
$GPGSV,2,2,06,24,63,095,46,32,19,254,41,,,,,,,,*7D
$GLGSV,2,1,07,65,60,346,44,66,24,284,42,72,30,063,41,74,30,052,35*6C
$GLGSV,2,2,07,75,33,118,42,81,32,313,45,88,41,242,46,,,,*55
$GAGSV,1,1,04,07,78,329,44,08,34,059,39,13,28,178,42,26,59,247,43*6B
$GNVTG,312.95,T,,M,0.02,N,0.04,K,D*2C
$GNGST,161721.80,2.577,,,,0.019,0.024,0.039*6E
$GNZDA,161721.80,10,10,2023,00,00*71
$GNRMC,161722.80,A,4220.3417192,N,07105.0917270,W,0.03,312.95,101023,,,D*56
$GNGGA,161722.80,4220.3417192,N,07105.0917270,W,5,18,0.9,4.143,M,-28.723,M,0.8,0061*69
$GPGSA,A,3,10,15,18,23,24,32,,,,,,,1.8,0.9,1.6*3F
$GLGSA,A,3,65,66,72,74,75,81,88,,,,,,1.8,0.9,1.6*27
$GAGSA,A,3,07,08,13,26,,,,,,,,,1.8,0.9,1.6*2D
$GBGSA,A,3,,,,,,,,,,,,,1.8,0.9,1.6*27
$GPGSV,2,1,06,10,41,307,46,15,40,063,43,18,48,197,45,23,78,350,47*7C
$GPGSV,2,2,06,24,63,095,46,32,19,254,41,,,,,,,,*7D
$GLGSV,2,1,07,65,60,346,44,66,24,284,42,72,30,063,41,74,30,052,35*6C
$GLGSV,2,2,07,75,33,118,42,81,32,313,45,88,41,242,46,,,,*55
$GAGSV,1,1,04,07,78,329,44,08,34,059,39,13,28,178,42,26,59,247,43*6B
$GNVTG,312.95,T,,M,0.03,N,0.05,K,D*2C
$GNGST,161722.80,2.512,,,,0.019,0.024,0.039*6E
$GNZDA,161722.80,10,10,2023,00,00*72
$GNRMC,161723.80,A,4220.3417195,N,07105.0917267,W,0.02,312.95,101023,,,D*57
$GNGGA,161723.80,4220.3417195,N,07105.0917267,W,5,18,0.9,4.141,M,-28.723,M,0.8,0061*6B
$GPGSA,A,3,10,15,18,23,24,32,,,,,,,1.8,0.9,1.6*3F
$GLGSA,A,3,65,66,72,74,75,81,88,,,,,,1.8,0.9,1.6*27
$GAGSA,A,3,07,08,13,26,,,,,,,,,1.8,0.9,1.6*2D
$GBGSA,A,3,,,,,,,,,,,,,1.8,0.9,1.6*27
$GPGSV,2,1,06,10,41,307,46,15,40,063,43,18,48,197,45,23,78,350,47*7C
$GPGSV,2,2,06,24,63,095,46,32,19,254,41,,,,,,,,*7D
$GLGSV,2,1,07,65,60,346,44,66,24,284,42,72,30,063,41,74,30,052,35*6C
$GLGSV,2,2,07,75,33,118,42,81,32,313,45,88,41,242,46,,,,*55
$GAGSV,1,1,04,07,78,329,44,08,34,059,39,13,28,178,42,26,59,246,43*6A
$GNVTG,312.95,T,,M,0.02,N,0.03,K,D*2B
$GNGST,161723.80,2.520,,,,0.019,0.024,0.039*6E
$GNZDA,161723.80,10,10,2023,00,00*73
$GNRMC,161724.80,A,4220.3417195,N,07105.0917255,W,0.01,312.95,101023,,,D*52
$GNGGA,161724.80,4220.3417195,N,07105.0917255,W,5,18,0.9,4.147,M,-28.723,M,0.8,0061*6B
$GPGSA,A,3,10,15,18,23,24,32,,,,,,,1.8,0.9,1.6*3F
$GLGSA,A,3,65,66,72,74,75,81,88,,,,,,1.8,0.9,1.6*27
$GAGSA,A,3,07,08,13,26,,,,,,,,,1.8,0.9,1.6*2D
$GBGSA,A,3,,,,,,,,,,,,,1.8,0.9,1.6*27
$GPGSV,2,1,06,10,41,307,45,15,40,063,43,18,48,197,45,23,78,350,47*7F
$GPGSV,2,2,06,24,63,095,46,32,19,254,40,,,,,,,,*7C
$GLGSV,2,1,07,65,60,346,44,66,24,284,42,72,30,063,41,74,30,052,35*6C
$GLGSV,2,2,07,75,33,118,42,81,32,313,45,88,41,242,46,,,,*55
$GAGSV,1,1,04,07,78,329,44,08,34,059,39,13,28,178,42,26,59,246,43*6A
$GNVTG,312.95,T,,M,0.01,N,0.02,K,D*29
$GNGST,161724.80,2.522,,,,0.019,0.024,0.039*6B
$GNZDA,161724.80,10,10,2023,00,00*74
$GNRMC,161725.80,A,4220.3417201,N,07105.0917260,W,0.03,312.95,101023,,,D*59
$GNGGA,161725.80,4220.3417201,N,07105.0917260,W,5,18,0.9,4.150,M,-28.723,M,0.8,0061*64
$GPGSA,A,3,10,15,18,23,24,32,,,,,,,1.8,0.9,1.6*3F
$GLGSA,A,3,65,66,72,74,75,81,88,,,,,,1.8,0.9,1.6*27
$GAGSA,A,3,07,08,13,26,,,,,,,,,1.8,0.9,1.6*2D
$GBGSA,A,3,,,,,,,,,,,,,1.8,0.9,1.6*27
$GPGSV,2,1,06,10,41,307,45,15,40,063,43,18,48,197,45,23,78,350,46*7E
$GPGSV,2,2,06,24,63,095,46,32,19,254,41,,,,,,,,*7D
$GLGSV,2,1,07,65,60,346,44,66,24,284,42,72,30,063,41,74,30,052,35*6C
$GLGSV,2,2,07,75,33,118,42,81,32,312,45,88,41,242,47,,,,*55
$GAGSV,1,1,04,07,78,329,44,08,34,059,39,13,28,178,42,26,59,246,43*6A
$GNVTG,312.95,T,,M,0.03,N,0.06,K,D*2F
$GNGST,161725.80,2.388,,,,0.019,0.024,0.039*6C
$GNZDA,161725.80,10,10,2023,00,00*75
$GNRMC,161726.80,A,4220.3417204,N,07105.0917244,W,0.01,312.95,101023,,,D*5B
$GNGGA,161726.80,4220.3417204,N,07105.0917244,W,5,18,0.9,4.149,M,-28.723,M,0.8,0061*6C
$GPGSA,A,3,10,15,18,23,24,32,,,,,,,1.8,0.9,1.6*3F
$GLGSA,A,3,65,66,72,74,75,81,88,,,,,,1.8,0.9,1.6*27
$GAGSA,A,3,07,08,13,26,,,,,,,,,1.8,0.9,1.6*2D
$GBGSA,A,3,,,,,,,,,,,,,1.8,0.9,1.6*27
$GPGSV,2,1,06,10,41,307,45,15,40,063,43,18,48,197,45,23,78,350,46*7E
$GPGSV,2,2,06,24,63,095,46,32,19,254,41,,,,,,,,*7D
$GLGSV,2,1,07,65,60,346,44,66,24,284,42,72,30,063,41,74,30,052,35*6C
$GLGSV,2,2,07,75,33,118,42,81,32,312,45,88,41,242,46,,,,*54
$GAGSV,1,1,04,07,78,329,44,08,34,059,39,13,28,178,42,26,59,246,43*6A
$GNVTG,312.95,T,,M,0.01,N,0.02,K,D*29
$GNGST,161726.80,2.592,,,,0.019,0.024,0.039*62
$GNZDA,161726.80,10,10,2023,00,00*76
$GNRMC,161727.80,A,4220.3417222,N,07105.0917216,W,0.01,312.95,101023,,,D*59
$GNGGA,161727.80,4220.3417222,N,07105.0917216,W,5,18,0.9,4.154,M,-28.723,M,1.8,0061*63
$GPGSA,A,3,10,15,18,23,24,32,,,,,,,1.8,0.9,1.6*3F
$GLGSA,A,3,65,66,72,74,75,81,88,,,,,,1.8,0.9,1.6*27
$GAGSA,A,3,07,08,13,26,,,,,,,,,1.8,0.9,1.6*2D
$GBGSA,A,3,,,,,,,,,,,,,1.8,0.9,1.6*27
$GPGSV,2,1,06,10,41,307,45,15,40,063,43,18,48,197,45,23,78,350,46*7E
$GPGSV,2,2,06,24,63,095,46,32,19,254,41,,,,,,,,*7D
$GLGSV,2,1,07,65,60,346,44,66,24,284,42,72,30,063,41,74,30,052,35*6C
$GLGSV,2,2,07,75,33,118,42,81,32,312,45,88,41,242,47,,,,*55
$GAGSV,1,1,04,07,78,330,44,08,34,059,39,13,28,178,42,26,59,246,43*62
$GNVTG,312.95,T,,M,0.01,N,0.01,K,D*2A
$GNGST,161727.80,2.422,,,,0.019,0.024,0.039*69
$GNZDA,161727.80,10,10,2023,00,00*77
$GNRMC,161728.80,A,4220.3417236,N,07105.0917200,W,0.01,312.95,101023,,,D*54
$GNGGA,161728.80,4220.3417236,N,07105.0917200,W,5,18,0.9,4.158,M,-28.723,M,2.8,0061*61
$GPGSA,A,3,10,15,18,23,24,32,,,,,,,1.8,0.9,1.6*3F
$GLGSA,A,3,65,66,72,74,75,81,88,,,,,,1.8,0.9,1.6*27
$GAGSA,A,3,07,08,13,26,,,,,,,,,1.8,0.9,1.6*2D
$GBGSA,A,3,,,,,,,,,,,,,1.8,0.9,1.6*27
$GPGSV,2,1,06,10,41,307,45,15,40,063,43,18,48,197,45,23,78,350,46*7E
$GPGSV,2,2,06,24,63,095,46,32,19,254,41,,,,,,,,*7D
$GLGSV,2,1,07,65,60,346,44,66,24,284,42,72,30,063,41,74,30,052,35*6C
$GLGSV,2,2,07,75,33,118,42,81,32,312,45,88,41,242,47,,,,*55
$GAGSV,1,1,04,07,78,330,44,08,34,059,39,13,28,178,42,26,59,246,43*62
$GNVTG,312.95,T,,M,0.01,N,0.01,K,D*2A
$GNGST,161728.80,2.402,,,,0.019,0.024,0.040*6A
$GNZDA,161728.80,10,10,2023,00,00*78
$GNRMC,161729.80,A,4220.3417217,N,07105.0917182,W,0.01,312.95,101023,,,D*5F
$GNGGA,161729.80,4220.3417217,N,07105.0917182,W,5,18,0.9,4.155,M,-28.723,M,0.8,0061*65
$GPGSA,A,3,10,15,18,23,24,32,,,,,,,1.8,0.9,1.6*3F
$GLGSA,A,3,65,66,72,74,75,81,88,,,,,,1.8,0.9,1.6*27
$GAGSA,A,3,07,08,13,26,,,,,,,,,1.8,0.9,1.6*2D
$GBGSA,A,3,,,,,,,,,,,,,1.8,0.9,1.6*27
$GPGSV,2,1,06,10,41,307,45,15,40,063,43,18,48,197,45,23,78,350,46*7E
$GPGSV,2,2,06,24,63,095,46,32,19,254,41,,,,,,,,*7D
$GLGSV,2,1,07,65,60,346,44,66,24,284,42,72,30,063,41,74,30,052,35*6C
$GLGSV,2,2,07,75,33,118,42,81,32,312,45,88,41,242,46,,,,*54
$GAGSV,1,1,04,07,78,330,44,08,34,059,39,13,28,178,42,26,59,246,43*62
$GNVTG,312.95,T,,M,0.01,N,0.01,K,D*2A
$GNGST,161729.80,2.393,,,,0.019,0.023,0.039*6D
$GNZDA,161729.80,10,10,2023,00,00*79
$GNRMC,161730.80,A,4220.3417229,N,07105.0917180,W,0.04,312.95,101023,,,D*5D
$GNGGA,161730.80,4220.3417229,N,07105.0917180,W,5,18,0.9,4.154,M,-28.723,M,0.8,0061*63
$GPGSA,A,3,10,15,18,23,24,32,,,,,,,1.8,0.9,1.6*3F
$GLGSA,A,3,65,66,72,74,75,81,88,,,,,,1.8,0.9,1.6*27
$GAGSA,A,3,07,08,13,26,,,,,,,,,1.8,0.9,1.6*2D
$GBGSA,A,3,,,,,,,,,,,,,1.8,0.9,1.6*27
$GPGSV,2,1,06,10,41,307,45,15,40,063,43,18,48,197,45,23,78,350,46*7E
$GPGSV,2,2,06,24,63,095,46,32,19,254,41,,,,,,,,*7D
$GLGSV,2,1,07,65,60,346,44,66,24,284,42,72,30,063,41,74,30,052,35*6C
$GLGSV,2,2,07,75,33,118,42,81,32,312,45,88,41,242,46,,,,*54
$GAGSV,1,1,04,07,78,330,44,08,34,059,39,13,28,178,42,26,59,246,43*62
$GNVTG,312.95,T,,M,0.04,N,0.08,K,D*26
$GNGST,161730.80,2.351,,,,0.019,0.023,0.039*6B
$GNZDA,161730.80,10,10,2023,00,00*71
$GNRMC,161731.80,A,4220.3417239,N,07105.0917156,W,0.04,312.95,101023,,,D*56
$GNGGA,161731.80,4220.3417239,N,07105.0917156,W,5,18,0.9,4.149,M,-28.723,M,0.8,0061*64
$GPGSA,A,3,10,15,18,23,24,32,,,,,,,1.8,0.9,1.6*3F
$GLGSA,A,3,65,66,72,74,75,81,88,,,,,,1.8,0.9,1.6*27
$GAGSA,A,3,07,08,13,26,,,,,,,,,1.8,0.9,1.6*2D
$GBGSA,A,3,,,,,,,,,,,,,1.8,0.9,1.6*27
$GPGSV,2,1,06,10,41,307,45,15,40,063,43,18,48,197,45,23,78,350,46*7E
$GPGSV,2,2,06,24,63,095,46,32,19,254,41,,,,,,,,*7D
$GLGSV,2,1,07,65,60,346,44,66,24,284,42,72,30,063,41,74,30,052,35*6C
$GLGSV,2,2,07,75,33,118,42,81,32,312,45,88,41,242,46,,,,*54
$GAGSV,1,1,04,07,78,330,44,08,34,059,39,13,28,178,42,26,59,246,43*62
$GNVTG,312.95,T,,M,0.04,N,0.07,K,D*29
$GNGST,161731.80,2.206,,,,0.019,0.023,0.039*69
$GNZDA,161731.80,10,10,2023,00,00*70
$GNRMC,161732.80,A,4220.3417251,N,07105.0917130,W,0.01,312.95,101023,,,D*5E
$GNGGA,161732.80,4220.3417251,N,07105.0917130,W,5,18,0.9,4.155,M,-28.723,M,0.8,0061*64
$GPGSA,A,3,10,15,18,23,24,32,,,,,,,1.8,0.9,1.6*3F
$GLGSA,A,3,65,66,72,74,75,81,88,,,,,,1.8,0.9,1.6*27
$GAGSA,A,3,07,08,13,26,,,,,,,,,1.8,0.9,1.6*2D
$GBGSA,A,3,,,,,,,,,,,,,1.8,0.9,1.6*27
$GPGSV,2,1,06,10,41,307,45,15,40,063,43,18,48,197,45,23,78,350,46*7E
$GPGSV,2,2,06,24,63,095,46,32,19,254,41,,,,,,,,*7D
$GLGSV,2,1,07,65,60,346,44,66,24,284,42,72,30,063,41,74,30,052,35*6C
$GLGSV,2,2,07,75,33,118,42,81,32,312,45,88,41,242,46,,,,*54
$GAGSV,1,1,04,07,78,330,44,08,34,059,39,13,28,178,42,26,59,246,43*62
$GNVTG,312.95,T,,M,0.01,N,0.02,K,D*29
$GNGST,161732.80,2.264,,,,0.019,0.023,0.039*6E
$GNZDA,161732.80,10,10,2023,00,00*73
$GNRMC,161733.80,A,4220.3417256,N,07105.0917127,W,0.04,312.95,101023,,,D*5B
$GNGGA,161733.80,4220.3417256,N,07105.0917127,W,5,18,0.9,4.163,M,-28.723,M,0.8,0061*61
$GPGSA,A,3,10,15,18,23,24,32,,,,,,,1.8,0.9,1.6*3F
$GLGSA,A,3,65,66,72,74,75,81,88,,,,,,1.8,0.9,1.6*27
$GAGSA,A,3,07,08,13,26,,,,,,,,,1.8,0.9,1.6*2D
$GBGSA,A,3,,,,,,,,,,,,,1.8,0.9,1.6*27
$GPGSV,2,1,06,10,41,307,45,15,40,063,43,18,48,197,45,23,78,350,47*7F
$GPGSV,2,2,06,24,63,095,46,32,19,254,41,,,,,,,,*7D
$GLGSV,2,1,07,65,60,346,44,66,24,284,42,72,30,063,41,74,30,052,35*6C
$GLGSV,2,2,07,75,33,118,42,81,32,312,45,88,41,242,46,,,,*54
$GAGSV,1,1,04,07,78,330,44,08,34,059,39,13,28,178,42,26,59,246,43*62
$GNVTG,312.95,T,,M,0.04,N,0.07,K,D*29
$GNGST,161733.80,2.208,,,,0.019,0.023,0.039*65
$GNZDA,161733.80,10,10,2023,00,00*72
$GNRMC,161734.80,A,4220.3417257,N,07105.0917122,W,0.02,312.95,101023,,,D*5E
$GNGGA,161734.80,4220.3417257,N,07105.0917122,W,5,18,0.9,4.161,M,-28.723,M,0.8,0061*60
$GPGSA,A,3,10,15,18,23,24,32,,,,,,,1.8,0.9,1.6*3F
$GLGSA,A,3,65,66,72,74,75,81,88,,,,,,1.8,0.9,1.6*27
$GAGSA,A,3,07,08,13,26,,,,,,,,,1.8,0.9,1.6*2D
$GBGSA,A,3,,,,,,,,,,,,,1.8,0.9,1.6*27
$GPGSV,2,1,06,10,41,307,45,15,40,063,43,18,48,197,45,23,78,350,47*7F
$GPGSV,2,2,06,24,63,095,46,32,19,254,41,,,,,,,,*7D
$GLGSV,2,1,07,65,60,346,44,66,24,284,42,72,30,063,41,74,30,052,35*6C
$GLGSV,2,2,07,75,33,118,42,81,32,312,45,88,41,242,46,,,,*54
$GAGSV,1,1,04,07,78,330,44,08,34,059,39,13,28,178,42,26,59,246,43*62
$GNVTG,312.95,T,,M,0.02,N,0.05,K,D*2D
$GNGST,161734.80,1.985,,,,0.018,0.023,0.038*6F
$GNZDA,161734.80,10,10,2023,00,00*75
$GNRMC,161735.80,A,4220.3417261,N,07105.0917116,W,0.02,312.95,101023,,,D*5D
$GNGGA,161735.80,4220.3417261,N,07105.0917116,W,5,18,0.9,4.165,M,-28.723,M,0.8,0061*67
$GPGSA,A,3,10,15,18,23,24,32,,,,,,,1.8,0.9,1.6*3F
$GLGSA,A,3,65,66,72,74,75,81,88,,,,,,1.8,0.9,1.6*27
$GAGSA,A,3,07,08,13,26,,,,,,,,,1.8,0.9,1.6*2D
$GBGSA,A,3,,,,,,,,,,,,,1.8,0.9,1.6*27
$GPGSV,2,1,06,10,41,307,45,15,40,063,43,18,47,197,45,23,78,350,47*70
$GPGSV,2,2,06,24,63,095,46,32,19,254,41,,,,,,,,*7D
$GLGSV,2,1,07,65,60,346,44,66,24,284,42,72,30,063,41,74,30,052,35*6C
$GLGSV,2,2,07,75,33,118,42,81,32,312,45,88,41,242,46,,,,*54
$GAGSV,1,1,04,07,78,330,44,08,34,059,39,13,28,178,42,26,59,246,43*62
$GNVTG,312.95,T,,M,0.02,N,0.04,K,D*2C
$GNGST,161735.80,1.949,,,,0.018,0.023,0.038*6E
$GNZDA,161735.80,10,10,2023,00,00*74
$GNRMC,161736.80,A,4220.3417241,N,07105.0917115,W,0.02,312.95,101023,,,D*5F
$GNGGA,161736.80,4220.3417241,N,07105.0917115,W,5,18,0.9,4.165,M,-28.723,M,0.8,0061*65
$GPGSA,A,3,10,15,18,23,24,32,,,,,,,1.8,0.9,1.6*3F
$GLGSA,A,3,65,66,72,74,75,81,88,,,,,,1.8,0.9,1.6*27
$GAGSA,A,3,07,08,13,26,,,,,,,,,1.8,0.9,1.6*2D
$GBGSA,A,3,,,,,,,,,,,,,1.8,0.9,1.6*27
$GPGSV,2,1,06,10,41,307,45,15,40,063,43,18,47,197,45,23,78,350,47*70
$GPGSV,2,2,06,24,63,095,46,32,19,254,41,,,,,,,,*7D
$GLGSV,2,1,07,65,60,346,44,66,24,284,42,72,30,063,42,74,30,052,35*6F
$GLGSV,2,2,07,75,33,118,42,81,32,312,45,88,41,242,46,,,,*54
$GAGSV,1,1,04,07,78,330,44,08,34,059,39,13,28,178,42,26,59,246,43*62
$GNVTG,312.95,T,,M,0.02,N,0.04,K,D*2C
$GNGST,161736.80,1.986,,,,0.018,0.023,0.038*6E
$GNZDA,161736.80,10,10,2023,00,00*77
$GNRMC,161737.80,A,4220.3417250,N,07105.0917098,W,0.03,312.95,101023,,,D*5B
$GNGGA,161737.80,4220.3417250,N,07105.0917098,W,5,18,0.9,4.167,M,-28.723,M,0.8,0061*62
$GPGSA,A,3,10,15,18,23,24,32,,,,,,,1.8,0.9,1.6*3F
$GLGSA,A,3,65,66,72,74,75,81,88,,,,,,1.8,0.9,1.6*27
$GAGSA,A,3,07,08,13,26,,,,,,,,,1.8,0.9,1.6*2D
$GBGSA,A,3,,,,,,,,,,,,,1.8,0.9,1.6*27
$GPGSV,2,1,06,10,41,307,45,15,40,063,43,18,47,197,44,23,78,350,47*71
$GPGSV,2,2,06,24,63,095,46,32,19,254,41,,,,,,,,*7D
$GLGSV,2,1,07,65,60,346,44,66,24,284,43,72,30,063,42,74,30,052,35*6E
$GLGSV,2,2,07,75,33,118,41,81,32,312,45,88,41,242,46,,,,*57
$GAGSV,1,1,04,07,78,330,44,08,34,059,39,13,28,178,42,26,59,246,43*62
$GNVTG,312.95,T,,M,0.03,N,0.05,K,D*2C
$GNGST,161737.80,2.087,,,,0.018,0.023,0.038*64
$GNZDA,161737.80,10,10,2023,00,00*76
$GNRMC,161738.80,A,4220.3417250,N,07105.0917101,W,0.01,312.95,101023,,,D*57
$GNGGA,161738.80,4220.3417250,N,07105.0917101,W,5,18,0.9,4.171,M,-28.723,M,0.8,0061*6B
$GPGSA,A,3,10,15,18,23,24,32,,,,,,,1.8,0.9,1.6*3F
$GLGSA,A,3,65,66,72,74,75,81,88,,,,,,1.8,0.9,1.6*27
$GAGSA,A,3,07,08,13,26,,,,,,,,,1.8,0.9,1.6*2D
$GBGSA,A,3,,,,,,,,,,,,,1.8,0.9,1.6*27
$GPGSV,2,1,06,10,41,307,45,15,40,063,43,18,47,197,44,23,78,351,47*70
$GPGSV,2,2,06,24,63,095,46,32,19,254,41,,,,,,,,*7D
$GLGSV,2,1,07,65,60,346,44,66,24,284,43,72,30,063,41,74,30,052,35*6D
$GLGSV,2,2,07,75,33,118,41,81,32,312,45,88,41,242,46,,,,*57
$GAGSV,1,1,04,07,78,330,44,08,34,059,39,13,28,178,42,26,59,246,43*62
$GNVTG,312.95,T,,M,0.01,N,0.01,K,D*2A
$GNGST,161738.80,2.157,,,,0.018,0.023,0.038*67
$GNZDA,161738.80,10,10,2023,00,00*79
$GNRMC,161739.80,A,4220.3417249,N,07105.0917087,W,0.01,312.95,101023,,,D*51
$GNGGA,161739.80,4220.3417249,N,07105.0917087,W,5,18,0.9,4.175,M,-28.723,M,0.8,0061*69
$GPGSA,A,3,10,15,18,23,24,32,,,,,,,1.8,0.9,1.6*3F
$GLGSA,A,3,65,66,72,74,75,81,88,,,,,,1.8,0.9,1.6*27
$GAGSA,A,3,07,08,13,26,,,,,,,,,1.8,0.9,1.6*2D
$GBGSA,A,3,,,,,,,,,,,,,1.8,0.9,1.6*27
$GPGSV,2,1,06,10,41,307,45,15,40,063,43,18,47,197,44,23,78,351,47*70
$GPGSV,2,2,06,24,63,095,46,32,19,254,41,,,,,,,,*7D
$GLGSV,2,1,07,65,60,346,44,66,24,284,43,72,30,063,41,74,30,052,35*6D
$GLGSV,2,2,07,75,33,118,41,81,32,312,45,88,41,242,46,,,,*57
$GAGSV,1,1,04,07,78,330,44,08,34,059,39,13,28,178,42,26,59,246,43*62
$GNVTG,312.95,T,,M,0.01,N,0.02,K,D*29
$GNGST,161739.80,2.422,,,,0.018,0.023,0.038*61
$GNZDA,161739.80,10,10,2023,00,00*78
$GNRMC,161740.80,A,4220.3417255,N,07105.0917089,W,0.05,312.95,101023,,,D*58
$GNGGA,161740.80,4220.3417255,N,07105.0917089,W,5,18,0.9,4.176,M,-28.723,M,0.8,0061*67
$GPGSA,A,3,10,15,18,23,24,32,,,,,,,1.8,0.9,1.6*3F
$GLGSA,A,3,65,66,72,74,75,81,88,,,,,,1.8,0.9,1.6*27
$GAGSA,A,3,07,08,13,26,,,,,,,,,1.8,0.9,1.6*2D
$GBGSA,A,3,,,,,,,,,,,,,1.8,0.9,1.6*27
$GPGSV,2,1,06,10,41,307,45,15,40,063,43,18,47,197,44,23,78,351,47*70
$GPGSV,2,2,06,24,63,095,46,32,19,254,41,,,,,,,,*7D
$GLGSV,2,1,07,65,60,346,44,66,24,284,43,72,30,063,41,74,30,052,35*6D
$GLGSV,2,2,07,75,33,118,41,81,32,312,45,88,41,242,46,,,,*57
$GAGSV,1,1,04,07,78,330,44,08,34,059,39,13,28,178,42,26,59,246,43*62
$GNVTG,312.95,T,,M,0.05,N,0.09,K,D*26
$GNGST,161740.80,2.451,,,,0.018,0.022,0.038*6A
$GNZDA,161740.80,10,10,2023,00,00*76
$GNRMC,161741.80,A,4220.3417245,N,07105.0917071,W,0.01,312.95,101023,,,D*5B
$GNGGA,161741.80,4220.3417245,N,07105.0917071,W,5,18,0.9,4.182,M,-28.723,M,0.8,0061*6B
$GPGSA,A,3,10,15,18,23,24,32,,,,,,,1.8,0.9,1.6*3F
$GLGSA,A,3,65,66,72,74,75,81,88,,,,,,1.8,0.9,1.6*27
$GAGSA,A,3,07,08,13,26,,,,,,,,,1.8,0.9,1.6*2D
$GBGSA,A,3,,,,,,,,,,,,,1.8,0.9,1.6*27
$GPGSV,2,1,06,10,41,307,45,15,40,063,43,18,47,197,44,23,78,351,47*70
$GPGSV,2,2,06,24,63,095,46,32,19,254,41,,,,,,,,*7D
$GLGSV,2,1,07,65,60,346,44,66,24,284,43,72,30,063,41,74,30,052,35*6D
$GLGSV,2,2,07,75,33,118,41,81,32,312,45,88,41,242,46,,,,*57
$GAGSV,1,1,04,07,78,330,44,08,34,059,39,13,28,178,42,26,59,246,43*62
$GNVTG,312.95,T,,M,0.01,N,0.01,K,D*2A
$GNGST,161741.80,2.559,,,,0.018,0.022,0.038*62
$GNZDA,161741.80,10,10,2023,00,00*77
$GNRMC,161742.80,A,4220.3417244,N,07105.0917072,W,0.03,312.95,101023,,,D*58
$GNGGA,161742.80,4220.3417244,N,07105.0917072,W,5,18,0.9,4.186,M,-28.723,M,0.8,0061*6E
$GPGSA,A,3,10,15,18,23,24,32,,,,,,,1.8,0.9,1.6*3F
$GLGSA,A,3,65,66,72,74,75,81,88,,,,,,1.8,0.9,1.6*27
$GAGSA,A,3,07,08,13,26,,,,,,,,,1.8,0.9,1.6*2D
$GBGSA,A,3,,,,,,,,,,,,,1.8,0.9,1.6*27
$GPGSV,2,1,06,10,41,307,45,15,40,063,43,18,47,197,44,23,78,351,47*70
$GPGSV,2,2,06,24,63,095,46,32,19,254,41,,,,,,,,*7D
$GLGSV,2,1,07,65,60,346,44,66,24,284,43,72,30,063,41,74,30,052,35*6D
$GLGSV,2,2,07,75,33,118,41,81,32,312,45,88,41,242,46,,,,*57
$GAGSV,1,1,04,07,78,330,44,08,34,059,39,13,28,178,42,26,59,246,43*62
$GNVTG,312.95,T,,M,0.03,N,0.06,K,D*2F
$GNGST,161742.80,2.414,,,,0.018,0.022,0.038*69
$GNZDA,161742.80,10,10,2023,00,00*74
$GNRMC,161743.80,A,4220.3417241,N,07105.0917070,W,0.02,312.95,101023,,,D*5F
$GNGGA,161743.80,4220.3417241,N,07105.0917070,W,5,18,0.9,4.192,M,-28.723,M,0.8,0061*6D
$GPGSA,A,3,10,15,18,23,24,32,,,,,,,1.8,0.9,1.6*3F
$GLGSA,A,3,65,66,72,74,75,81,88,,,,,,1.8,0.9,1.6*27
$GAGSA,A,3,07,08,13,26,,,,,,,,,1.8,0.9,1.6*2D
$GBGSA,A,3,,,,,,,,,,,,,1.8,0.9,1.6*27
$GPGSV,2,1,06,10,41,307,45,15,40,063,43,18,47,197,44,23,78,351,47*70
$GPGSV,2,2,06,24,63,095,46,32,19,254,41,,,,,,,,*7D
$GLGSV,2,1,07,65,60,346,44,66,24,284,43,72,30,063,41,74,30,052,35*6D
$GLGSV,2,2,07,75,33,118,42,81,32,312,45,88,41,242,46,,,,*54
$GAGSV,1,1,04,07,78,330,44,08,34,059,39,13,28,178,42,26,59,246,43*62
$GNVTG,312.95,T,,M,0.02,N,0.03,K,D*2B
$GNGST,161743.80,2.272,,,,0.018,0.022,0.038*6E
$GNZDA,161743.80,10,10,2023,00,00*75
$GNRMC,161744.80,A,4220.3417249,N,07105.0917081,W,0.02,312.95,101023,,,D*5E
$GNGGA,161744.80,4220.3417249,N,07105.0917081,W,5,18,0.9,4.195,M,-28.723,M,0.8,0061*6B
$GPGSA,A,3,10,15,18,23,24,32,,,,,,,1.8,0.9,1.6*3F
$GLGSA,A,3,65,66,72,74,75,81,88,,,,,,1.8,0.9,1.6*27
$GAGSA,A,3,07,08,13,26,,,,,,,,,1.8,0.9,1.6*2D
$GBGSA,A,3,,,,,,,,,,,,,1.8,0.9,1.6*27
$GPGSV,2,1,06,10,41,307,45,15,40,063,43,18,47,197,44,23,78,351,47*70
$GPGSV,2,2,06,24,63,095,46,32,19,254,41,,,,,,,,*7D
$GLGSV,2,1,07,65,60,346,44,66,24,284,43,72,30,063,41,74,30,052,35*6D
$GLGSV,2,2,07,75,33,118,42,81,32,312,45,88,41,242,46,,,,*54
$GAGSV,1,1,04,07,78,330,44,08,34,059,39,13,28,178,42,26,59,246,43*62
$GNVTG,312.95,T,,M,0.02,N,0.04,K,D*2C
$GNGST,161744.80,2.384,,,,0.018,0.022,0.038*61
$GNZDA,161744.80,10,10,2023,00,00*72
$GNRMC,161745.80,A,4220.3417252,N,07105.0917071,W,0.00,312.95,101023,,,D*58
$GNGGA,161745.80,4220.3417252,N,07105.0917071,W,5,18,0.9,4.199,M,-28.723,M,0.8,0061*63
$GPGSA,A,3,10,15,18,23,24,32,,,,,,,1.8,0.9,1.6*3F
$GLGSA,A,3,65,66,72,74,75,81,88,,,,,,1.8,0.9,1.6*27
$GAGSA,A,3,07,08,13,26,,,,,,,,,1.8,0.9,1.6*2D
$GBGSA,A,3,,,,,,,,,,,,,1.8,0.9,1.6*27
$GPGSV,2,1,06,10,41,307,45,15,40,063,43,18,47,197,44,23,78,351,47*70
$GPGSV,2,2,06,24,63,095,46,32,19,254,41,,,,,,,,*7D
$GLGSV,2,1,07,65,60,346,44,66,24,284,43,72,30,063,41,74,30,052,35*6D
$GLGSV,2,2,07,75,33,118,42,81,32,312,45,88,41,242,46,,,,*54
$GAGSV,1,1,04,07,78,330,44,08,34,059,39,13,28,178,42,26,59,246,43*62
$GNVTG,312.95,T,,M,0.00,N,0.01,K,D*2B
$GNGST,161745.80,2.249,,,,0.018,0.022,0.038*60
$GNZDA,161745.80,10,10,2023,00,00*73
$GNRMC,161746.80,A,4220.3417248,N,07105.0917045,W,0.01,312.95,101023,,,D*56
$GNGGA,161746.80,4220.3417248,N,07105.0917045,W,5,18,0.9,4.196,M,-28.723,M,0.8,0061*63
$GPGSA,A,3,10,15,18,23,24,32,,,,,,,1.8,0.9,1.6*3F
$GLGSA,A,3,65,66,72,74,75,81,88,,,,,,1.8,0.9,1.6*27
$GAGSA,A,3,07,08,13,26,,,,,,,,,1.8,0.9,1.6*2D
$GBGSA,A,3,,,,,,,,,,,,,1.8,0.9,1.6*27
$GPGSV,2,1,06,10,41,307,45,15,40,063,43,18,47,197,44,23,78,351,46*71
$GPGSV,2,2,06,24,63,095,46,32,19,254,41,,,,,,,,*7D
$GLGSV,2,1,07,65,60,346,44,66,24,284,43,72,30,063,41,74,30,052,35*6D
$GLGSV,2,2,07,75,33,118,42,81,32,312,45,88,41,242,46,,,,*54
$GAGSV,1,1,04,07,78,330,44,08,34,059,39,13,28,178,42,26,59,246,43*62
$GNVTG,312.95,T,,M,0.01,N,0.03,K,D*28
$GNGST,161746.80,2.146,,,,0.018,0.022,0.038*6F
$GNZDA,161746.80,10,10,2023,00,00*70
$GNRMC,161747.80,A,4220.3417254,N,07105.0917046,W,0.03,312.95,101023,,,D*5B
$GNGGA,161747.80,4220.3417254,N,07105.0917046,W,5,18,0.9,4.203,M,-28.723,M,0.8,0061*63
$GPGSA,A,3,10,15,18,23,24,32,,,,,,,1.8,0.9,1.6*3F
$GLGSA,A,3,65,66,72,74,75,81,88,,,,,,1.8,0.9,1.6*27
$GAGSA,A,3,07,08,13,26,,,,,,,,,1.8,0.9,1.6*2D
$GBGSA,A,3,,,,,,,,,,,,,1.8,0.9,1.6*27
$GPGSV,2,1,06,10,41,307,45,15,40,063,43,18,47,197,44,23,78,351,46*71
$GPGSV,2,2,06,24,63,095,46,32,19,254,41,,,,,,,,*7D
$GLGSV,2,1,07,65,60,346,44,66,24,284,42,72,30,063,41,74,30,052,35*6C
$GLGSV,2,2,07,75,33,118,42,81,32,312,45,88,41,242,46,,,,*54
$GAGSV,1,1,04,07,78,330,44,08,34,059,39,13,28,178,42,26,59,246,43*62
$GNVTG,312.95,T,,M,0.03,N,0.06,K,D*2F
$GNGST,161747.80,2.269,,,,0.018,0.022,0.038*60
$GNZDA,161747.80,10,10,2023,00,00*71
$GNRMC,161748.80,A,4220.3417254,N,07105.0917041,W,0.03,312.95,101023,,,D*53
$GNGGA,161748.80,4220.3417254,N,07105.0917041,W,5,18,0.9,4.200,M,-28.723,M,0.8,0061*68
$GPGSA,A,3,10,15,18,23,24,32,,,,,,,1.8,0.9,1.6*3F
$GLGSA,A,3,65,66,72,74,75,81,88,,,,,,1.8,0.9,1.6*27
$GAGSA,A,3,07,08,13,26,,,,,,,,,1.8,0.9,1.6*2D
$GBGSA,A,3,,,,,,,,,,,,,1.8,0.9,1.6*27
$GPGSV,2,1,06,10,41,307,45,15,40,063,43,18,47,197,44,23,78,351,46*71
$GPGSV,2,2,06,24,63,095,46,32,19,254,41,,,,,,,,*7D
$GLGSV,2,1,07,65,60,346,44,66,24,284,42,72,30,063,41,74,30,052,35*6C
$GLGSV,2,2,07,75,33,118,42,81,32,312,45,88,41,242,46,,,,*54
$GAGSV,1,1,04,07,78,330,44,08,34,059,39,13,28,178,42,26,59,246,43*62
$GNVTG,312.95,T,,M,0.03,N,0.05,K,D*2C
$GNGST,161748.80,2.295,,,,0.018,0.022,0.038*6C
$GNZDA,161748.80,10,10,2023,00,00*7E
$GNRMC,161749.80,A,4220.3417252,N,07105.0917022,W,0.00,312.95,101023,,,D*52
$GNGGA,161749.80,4220.3417252,N,07105.0917022,W,5,18,0.9,4.201,M,-28.723,M,0.8,0061*6B
$GPGSA,A,3,10,15,18,23,24,32,,,,,,,1.8,0.9,1.6*3F
$GLGSA,A,3,65,66,72,74,75,81,88,,,,,,1.8,0.9,1.6*27
$GAGSA,A,3,07,08,13,26,,,,,,,,,1.8,0.9,1.6*2D
$GBGSA,A,3,,,,,,,,,,,,,1.8,0.9,1.6*27
$GPGSV,2,1,06,10,41,307,45,15,40,063,43,18,47,197,44,23,78,351,46*71
$GPGSV,2,2,06,24,63,095,46,32,19,254,41,,,,,,,,*7D
$GLGSV,2,1,07,65,60,346,44,66,24,284,42,72,30,063,41,74,30,052,35*6C
$GLGSV,2,2,07,75,33,118,42,81,32,312,45,88,41,242,46,,,,*54
$GAGSV,1,1,04,07,78,330,44,08,34,059,39,13,28,178,42,26,59,246,43*62
$GNVTG,312.95,T,,M,0.00,N,0.01,K,D*2B
$GNGST,161749.80,2.335,,,,0.018,0.022,0.037*69
$GNZDA,161749.80,10,10,2023,00,00*7F
$GNRMC,161750.80,A,4220.3417254,N,07105.0916999,W,0.01,312.95,101023,,,D*55
$GNGGA,161750.80,4220.3417254,N,07105.0916999,W,5,18,0.9,4.210,M,-28.723,M,0.8,0061*6D
$GPGSA,A,3,10,15,18,23,24,32,,,,,,,1.8,0.9,1.6*3F
$GLGSA,A,3,65,66,72,74,75,81,88,,,,,,1.8,0.9,1.6*27
$GAGSA,A,3,07,08,13,26,,,,,,,,,1.8,0.9,1.6*2D
$GBGSA,A,3,,,,,,,,,,,,,1.8,0.9,1.6*27
$GPGSV,2,1,06,10,41,307,45,15,40,063,43,18,47,197,44,23,78,351,47*70
$GPGSV,2,2,06,24,63,095,46,32,19,254,41,,,,,,,,*7D
$GLGSV,2,1,07,65,60,346,44,66,24,284,42,72,30,063,41,74,30,052,35*6C
$GLGSV,2,2,07,75,33,118,42,81,32,312,45,88,41,242,46,,,,*54
$GAGSV,1,1,04,07,78,330,44,08,34,059,39,13,28,178,42,26,59,246,43*62
$GNVTG,312.95,T,,M,0.01,N,0.03,K,D*28
$GNGST,161750.80,2.373,,,,0.018,0.022,0.037*63
$GNZDA,161750.80,10,10,2023,00,00*77
$GNRMC,161751.80,A,4220.3417241,N,07105.0916982,W,0.03,312.95,101023,,,D*58
$GNGGA,161751.80,4220.3417241,N,07105.0916982,W,5,18,0.9,4.210,M,-28.723,M,0.8,0061*62
$GPGSA,A,3,10,15,18,23,24,32,,,,,,,1.8,0.9,1.6*3F
$GLGSA,A,3,65,66,72,74,75,81,88,,,,,,1.8,0.9,1.6*27
$GAGSA,A,3,07,08,13,26,,,,,,,,,1.8,0.9,1.6*2D
$GBGSA,A,3,,,,,,,,,,,,,1.8,0.9,1.6*27
$GPGSV,2,1,06,10,41,307,45,15,40,063,43,18,47,197,44,23,78,351,46*71
$GPGSV,2,2,06,24,63,095,46,32,19,254,41,,,,,,,,*7D
$GLGSV,2,1,07,65,60,346,44,66,24,284,42,72,30,063,41,74,30,052,35*6C
$GLGSV,2,2,07,75,33,118,42,81,32,312,45,88,41,241,46,,,,*57
$GAGSV,1,1,04,07,78,330,44,08,34,059,39,13,28,178,42,26,59,246,43*62
$GNVTG,312.95,T,,M,0.03,N,0.05,K,D*2C
$GNGST,161751.80,2.241,,,,0.018,0.022,0.037*62
$GNZDA,161751.80,10,10,2023,00,00*76
$GNRMC,161752.80,A,4220.3417251,N,07105.0916963,W,0.03,312.95,101023,,,D*55
$GNGGA,161752.80,4220.3417251,N,07105.0916963,W,5,18,0.9,4.217,M,-28.723,M,0.8,0061*68
$GPGSA,A,3,10,15,18,23,24,32,,,,,,,1.8,0.9,1.6*3F
$GLGSA,A,3,65,66,72,74,75,81,88,,,,,,1.8,0.9,1.6*27
$GAGSA,A,3,07,08,13,26,,,,,,,,,1.8,0.9,1.6*2D
$GBGSA,A,3,,,,,,,,,,,,,1.8,0.9,1.6*27
$GPGSV,2,1,06,10,41,307,45,15,40,063,43,18,47,197,44,23,78,351,46*71
$GPGSV,2,2,06,24,63,095,46,32,19,254,41,,,,,,,,*7D
$GLGSV,2,1,07,65,60,346,44,66,24,284,42,72,30,063,41,74,30,052,35*6C
$GLGSV,2,2,07,75,33,118,42,81,32,312,45,88,41,241,46,,,,*57
$GAGSV,1,1,04,07,78,330,44,08,34,059,39,13,28,178,42,26,59,246,43*62
$GNVTG,312.95,T,,M,0.03,N,0.05,K,D*2C
$GNGST,161752.80,2.158,,,,0.018,0.022,0.037*6A
$GNZDA,161752.80,10,10,2023,00,00*75
$GNRMC,161753.80,A,4220.3417249,N,07105.0916950,W,0.02,312.95,101023,,,D*5C
$GNGGA,161753.80,4220.3417249,N,07105.0916950,W,5,18,0.9,4.222,M,-28.723,M,0.8,0061*66
$GPGSA,A,3,10,15,18,23,24,32,,,,,,,1.8,0.9,1.6*3F
$GLGSA,A,3,65,66,72,74,75,81,88,,,,,,1.8,0.9,1.6*27
$GAGSA,A,3,07,08,13,26,,,,,,,,,1.8,0.9,1.6*2D
$GBGSA,A,3,,,,,,,,,,,,,1.8,0.9,1.6*27
$GPGSV,2,1,06,10,41,307,45,15,40,063,43,18,47,197,44,23,78,351,46*71
$GPGSV,2,2,06,24,63,095,46,32,19,254,41,,,,,,,,*7D
$GLGSV,2,1,07,65,60,346,44,66,24,284,42,72,30,063,41,74,30,052,35*6C
$GLGSV,2,2,07,75,33,118,42,81,32,312,45,88,41,241,46,,,,*57
$GAGSV,1,1,04,07,78,330,44,08,34,059,38,13,28,178,42,26,59,246,43*63
$GNVTG,312.95,T,,M,0.02,N,0.04,K,D*2C
$GNGST,161753.80,2.127,,,,0.017,0.021,0.037*6F
$GNZDA,161753.80,10,10,2023,00,00*74
$GNRMC,161754.80,A,4220.3417257,N,07105.0916948,W,0.02,312.95,101023,,,D*5D
$GNGGA,161754.80,4220.3417257,N,07105.0916948,W,5,18,0.9,4.225,M,-28.723,M,0.8,0061*60
$GPGSA,A,3,10,15,18,23,24,32,,,,,,,1.8,0.9,1.6*3F
$GLGSA,A,3,65,66,72,74,75,81,88,,,,,,1.8,0.9,1.6*27
$GAGSA,A,3,07,08,13,26,,,,,,,,,1.8,0.9,1.6*2D
$GBGSA,A,3,,,,,,,,,,,,,1.8,0.9,1.6*27
$GPGSV,2,1,06,10,41,307,45,15,40,063,43,18,47,197,44,23,78,351,46*71
$GPGSV,2,2,06,24,63,095,46,32,19,254,40,,,,,,,,*7C
$GLGSV,2,1,07,65,60,346,44,66,24,284,42,72,30,063,41,74,30,052,35*6C
$GLGSV,2,2,07,75,33,118,42,81,32,312,45,88,41,241,46,,,,*57
$GAGSV,1,1,04,07,78,330,44,08,34,059,38,13,28,178,42,26,59,246,43*63
$GNVTG,312.95,T,,M,0.02,N,0.04,K,D*2C
$GNGST,161754.80,2.033,,,,0.017,0.021,0.037*6C
$GNZDA,161754.80,10,10,2023,00,00*73
$GNRMC,161755.80,A,4220.3417248,N,07105.0916960,W,0.02,312.95,101023,,,D*58
$GNGGA,161755.80,4220.3417248,N,07105.0916960,W,5,18,0.9,4.222,M,-28.723,M,0.8,0061*62
$GPGSA,A,3,10,15,18,23,24,32,,,,,,,1.8,0.9,1.6*3F
$GLGSA,A,3,65,66,72,74,75,81,88,,,,,,1.8,0.9,1.6*27
$GAGSA,A,3,07,08,13,26,,,,,,,,,1.8,0.9,1.6*2D
$GBGSA,A,3,,,,,,,,,,,,,1.8,0.9,1.6*27
$GPGSV,2,1,06,10,41,307,45,15,40,063,43,18,47,197,44,23,78,351,46*71
$GPGSV,2,2,06,24,63,095,46,32,19,254,40,,,,,,,,*7C
$GLGSV,2,1,07,65,60,346,44,66,24,284,42,72,30,063,41,74,30,052,35*6C
$GLGSV,2,2,07,75,33,118,42,81,33,312,45,88,41,241,46,,,,*56
$GAGSV,1,1,04,07,78,330,44,08,34,059,38,13,28,178,42,26,59,246,43*63
$GNVTG,312.95,T,,M,0.02,N,0.04,K,D*2C
$GNGST,161755.80,2.148,,,,0.017,0.021,0.037*60
$GNZDA,161755.80,10,10,2023,00,00*72
$GNRMC,161756.80,A,4220.3417258,N,07105.0916951,W,0.02,312.95,101023,,,D*58
$GNGGA,161756.80,4220.3417258,N,07105.0916951,W,5,18,0.9,4.226,M,-28.723,M,0.8,0061*66
$GPGSA,A,3,10,15,18,23,24,32,,,,,,,1.8,0.9,1.6*3F
$GLGSA,A,3,65,66,72,74,75,81,88,,,,,,1.8,0.9,1.6*27
$GAGSA,A,3,07,08,13,26,,,,,,,,,1.8,0.9,1.6*2D
$GBGSA,A,3,,,,,,,,,,,,,1.8,0.9,1.6*27
$GPGSV,2,1,06,10,41,307,45,15,40,063,42,18,47,197,44,23,78,351,46*70
$GPGSV,2,2,06,24,63,095,46,32,19,254,40,,,,,,,,*7C
$GLGSV,2,1,07,65,60,346,44,66,24,284,42,72,30,063,41,74,30,052,35*6C
$GLGSV,2,2,07,75,33,118,42,81,33,312,45,88,41,241,46,,,,*56
$GAGSV,1,1,04,07,78,330,44,08,34,059,38,13,28,178,42,26,59,246,43*63
$GNVTG,312.95,T,,M,0.02,N,0.03,K,D*2B
$GNGST,161756.80,2.083,,,,0.017,0.021,0.037*65
$GNZDA,161756.80,10,10,2023,00,00*71
$GNRMC,161757.80,A,4220.3417272,N,07105.0916937,W,0.02,312.95,101023,,,D*51
$GNGGA,161757.80,4220.3417272,N,07105.0916937,W,5,18,0.9,4.231,M,-28.723,M,0.8,0061*69
$GPGSA,A,3,10,15,18,23,24,32,,,,,,,1.8,0.9,1.6*3F
$GLGSA,A,3,65,66,72,74,75,81,88,,,,,,1.8,0.9,1.6*27
$GAGSA,A,3,07,08,13,26,,,,,,,,,1.8,0.9,1.6*2D
$GBGSA,A,3,,,,,,,,,,,,,1.8,0.9,1.6*27
$GPGSV,2,1,06,10,41,307,45,15,40,063,43,18,47,197,44,23,78,351,46*71
$GPGSV,2,2,06,24,63,094,46,32,19,254,40,,,,,,,,*7D
$GLGSV,2,1,07,65,60,346,44,66,24,284,42,72,30,063,41,74,30,052,35*6C
$GLGSV,2,2,07,75,33,118,42,81,33,312,45,88,41,241,46,,,,*56
$GAGSV,1,1,04,07,78,330,44,08,34,059,38,13,28,178,42,26,59,246,43*63
$GNVTG,312.95,T,,M,0.02,N,0.04,K,D*2C
$GNGST,161757.80,1.958,,,,0.017,0.021,0.037*68
$GNZDA,161757.80,10,10,2023,00,00*70
$GNRMC,161758.80,A,4220.3417273,N,07105.0916938,W,0.02,312.95,101023,,,D*50
$GNGGA,161758.80,4220.3417273,N,07105.0916938,W,5,18,0.9,4.229,M,-28.723,M,0.8,0061*61
$GPGSA,A,3,10,15,18,23,24,32,,,,,,,1.8,0.9,1.6*3F
$GLGSA,A,3,65,66,72,74,75,81,88,,,,,,1.8,0.9,1.6*27
$GAGSA,A,3,07,08,13,26,,,,,,,,,1.8,0.9,1.6*2D
$GBGSA,A,3,,,,,,,,,,,,,1.8,0.9,1.6*27
$GPGSV,2,1,06,10,41,307,45,15,40,063,43,18,47,197,44,23,78,351,46*71
$GPGSV,2,2,06,24,63,094,46,32,19,254,40,,,,,,,,*7D
$GLGSV,2,1,07,65,60,346,44,66,24,284,42,72,30,063,41,74,30,052,35*6C
$GLGSV,2,2,07,75,33,118,42,81,33,312,45,88,41,241,46,,,,*56
$GAGSV,1,1,04,07,78,330,44,08,34,059,38,13,27,178,42,26,59,246,43*6C
$GNVTG,312.95,T,,M,0.02,N,0.03,K,D*2B
$GNGST,161758.80,2.001,,,,0.017,0.021,0.037*61
$GNZDA,161758.80,10,10,2023,00,00*7F
$GNRMC,161759.80,A,4220.3417277,N,07105.0916929,W,0.02,312.95,101023,,,D*55
$GNGGA,161759.80,4220.3417277,N,07105.0916929,W,5,18,0.9,4.235,M,-28.723,M,0.8,0061*69
$GPGSA,A,3,10,15,18,23,24,32,,,,,,,1.8,0.9,1.6*3F
$GLGSA,A,3,65,66,72,74,75,81,88,,,,,,1.8,0.9,1.6*27
$GAGSA,A,3,07,08,13,26,,,,,,,,,1.8,0.9,1.6*2D
$GBGSA,A,3,,,,,,,,,,,,,1.8,0.9,1.6*27
$GPGSV,2,1,06,10,41,307,45,15,40,063,43,18,47,197,44,23,78,351,46*71
$GPGSV,2,2,06,24,63,094,46,32,19,254,40,,,,,,,,*7D
$GLGSV,2,1,07,65,60,346,44,66,24,284,42,72,30,063,41,74,30,052,35*6C
$GLGSV,2,2,07,75,33,118,42,81,33,312,45,88,41,241,46,,,,*56
$GAGSV,1,1,04,07,78,330,44,08,34,059,38,13,27,178,42,26,59,246,43*6C
$GNVTG,312.95,T,,M,0.02,N,0.04,K,D*2C
$GNGST,161759.80,1.897,,,,0.017,0.021,0.037*64
$GNZDA,161759.80,10,10,2023,00,00*7E
$GNRMC,161800.80,A,4220.3417272,N,07105.0916922,W,0.03,312.95,101023,,,D*59
$GNGGA,161800.80,4220.3417272,N,07105.0916922,W,5,18,0.9,4.238,M,-28.723,M,0.8,0061*69
$GPGSA,A,3,10,15,18,23,24,32,,,,,,,1.8,0.9,1.6*3F
$GLGSA,A,3,65,66,72,74,75,81,88,,,,,,1.8,0.9,1.6*27
$GAGSA,A,3,07,08,13,26,,,,,,,,,1.8,0.9,1.6*2D
$GBGSA,A,3,,,,,,,,,,,,,1.8,0.9,1.6*27
$GPGSV,2,1,06,10,41,307,45,15,40,063,43,18,47,197,44,23,78,351,46*71
$GPGSV,2,2,06,24,63,094,46,32,19,254,41,,,,,,,,*7C
$GLGSV,2,1,07,65,60,346,44,66,24,284,42,72,30,064,41,74,30,052,35*6B
$GLGSV,2,2,07,75,33,118,42,81,33,312,45,88,41,241,46,,,,*56
$GAGSV,1,1,04,07,78,331,44,08,34,059,38,13,27,178,42,26,59,246,43*6D
$GNVTG,312.95,T,,M,0.03,N,0.06,K,D*2F
$GNGST,161800.80,2.039,,,,0.017,0.021,0.037*68
$GNZDA,161800.80,10,10,2023,00,00*7D
$GNRMC,161801.80,A,4220.3417262,N,07105.0916915,W,0.04,312.95,101023,,,D*5A
$GNGGA,161801.80,4220.3417262,N,07105.0916915,W,5,18,0.9,4.245,M,-28.723,M,0.8,0061*67
$GPGSA,A,3,10,15,18,23,24,32,,,,,,,1.8,0.9,1.6*3F
$GLGSA,A,3,65,66,72,74,75,81,88,,,,,,1.8,0.9,1.6*27
$GAGSA,A,3,07,08,13,26,,,,,,,,,1.8,0.9,1.6*2D
$GBGSA,A,3,,,,,,,,,,,,,1.8,0.9,1.6*27
$GPGSV,2,1,06,10,41,307,45,15,40,063,43,18,47,197,44,23,78,351,47*70
$GPGSV,2,2,06,24,63,094,46,32,19,254,41,,,,,,,,*7C
$GLGSV,2,1,07,65,60,346,44,66,24,284,42,72,30,064,41,74,30,052,35*6B
$GLGSV,2,2,07,75,33,118,42,81,33,312,45,88,41,241,46,,,,*56
$GAGSV,1,1,04,07,78,331,44,08,34,059,38,13,27,178,42,26,59,246,43*6D
$GNVTG,312.95,T,,M,0.04,N,0.08,K,D*26
$GNGST,161801.80,2.127,,,,0.017,0.021,0.037*67
$GNZDA,161801.80,10,10,2023,00,00*7C
$GNRMC,161802.80,A,4220.3417251,N,07105.0916905,W,0.01,312.95,101023,,,D*5D
$GNGGA,161802.80,4220.3417251,N,07105.0916905,W,5,18,0.9,4.238,M,-28.723,M,0.8,0061*6F
$GPGSA,A,3,10,15,18,23,24,32,,,,,,,1.8,0.9,1.6*3F
$GLGSA,A,3,65,66,72,74,75,81,88,,,,,,1.8,0.9,1.6*27
$GAGSA,A,3,07,08,13,26,,,,,,,,,1.8,0.9,1.6*2D
$GBGSA,A,3,,,,,,,,,,,,,1.8,0.9,1.6*27
$GPGSV,2,1,06,10,41,307,45,15,40,063,43,18,47,197,44,23,78,351,46*71
$GPGSV,2,2,06,24,63,094,46,32,19,254,41,,,,,,,,*7C
$GLGSV,2,1,07,65,60,346,44,66,24,284,42,72,30,064,41,74,30,052,35*6B
$GLGSV,2,2,07,75,33,118,42,81,33,312,45,88,41,241,46,,,,*56
$GAGSV,1,1,04,07,78,331,44,08,34,059,39,13,27,178,42,26,59,246,43*6C
$GNVTG,312.95,T,,M,0.01,N,0.03,K,D*28
$GNGST,161802.80,2.191,,,,0.017,0.021,0.037*69
$GNZDA,161802.80,10,10,2023,00,00*7F
$GNRMC,161803.80,A,4220.3417259,N,07105.0916911,W,0.03,312.95,101023,,,D*53
$GNGGA,161803.80,4220.3417259,N,07105.0916911,W,5,18,0.9,4.244,M,-28.723,M,0.8,0061*68
$GPGSA,A,3,10,15,18,23,24,32,,,,,,,1.8,0.9,1.6*3F
$GLGSA,A,3,65,66,72,74,75,81,88,,,,,,1.8,0.9,1.6*27
$GAGSA,A,3,07,08,13,26,,,,,,,,,1.8,0.9,1.6*2D
$GBGSA,A,3,,,,,,,,,,,,,1.8,0.9,1.6*27
$GPGSV,2,1,06,10,41,307,45,15,40,063,43,18,47,197,44,23,78,351,46*71
$GPGSV,2,2,06,24,63,094,46,32,19,254,41,,,,,,,,*7C
$GLGSV,2,1,07,65,60,346,44,66,24,284,42,72,30,064,41,74,30,052,35*6B
$GLGSV,2,2,07,75,33,118,42,81,33,312,45,88,41,241,46,,,,*56
$GAGSV,1,1,04,07,78,331,44,08,34,059,39,13,27,178,42,26,59,246,43*6C
$GNVTG,312.95,T,,M,0.03,N,0.06,K,D*2F
$GNGST,161803.80,2.256,,,,0.017,0.021,0.036*61
$GNZDA,161803.80,10,10,2023,00,00*7E
$GNRMC,161804.80,A,4220.3417268,N,07105.0916892,W,0.01,312.95,101023,,,D*5E
$GNGGA,161804.80,4220.3417268,N,07105.0916892,W,5,18,0.9,4.244,M,-28.723,M,0.8,0061*67
$GPGSA,A,3,10,15,18,23,24,32,,,,,,,1.8,0.9,1.6*3F
$GLGSA,A,3,65,66,72,74,75,81,88,,,,,,1.8,0.9,1.6*27
$GAGSA,A,3,07,08,13,26,,,,,,,,,1.8,0.9,1.6*2D
$GBGSA,A,3,,,,,,,,,,,,,1.8,0.9,1.6*27
$GPGSV,2,1,06,10,41,307,45,15,40,063,43,18,47,197,44,23,78,351,46*71
$GPGSV,2,2,06,24,63,094,46,32,19,254,41,,,,,,,,*7C
$GLGSV,2,1,07,65,60,346,44,66,24,284,42,72,30,064,41,74,30,052,35*6B
$GLGSV,2,2,07,75,33,118,42,81,33,312,45,88,41,241,46,,,,*56
$GAGSV,1,1,04,07,78,331,44,08,34,059,39,13,27,178,42,26,59,246,43*6C
$GNVTG,312.95,T,,M,0.01,N,0.02,K,D*29
$GNGST,161804.80,2.110,,,,0.017,0.021,0.036*67
$GNZDA,161804.80,10,10,2023,00,00*79
$GNRMC,161805.80,A,4220.3417262,N,07105.0916891,W,0.01,312.95,101023,,,D*56
$GNGGA,161805.80,4220.3417262,N,07105.0916891,W,5,18,0.9,4.247,M,-28.723,M,0.8,0061*6C
$GPGSA,A,3,10,15,18,23,24,32,,,,,,,1.8,0.9,1.6*3F
$GLGSA,A,3,65,66,72,74,75,81,88,,,,,,1.8,0.9,1.6*27
$GAGSA,A,3,07,08,13,26,,,,,,,,,1.8,0.9,1.6*2D
$GBGSA,A,3,,,,,,,,,,,,,1.8,0.9,1.6*27
$GPGSV,2,1,06,10,41,307,45,15,40,063,43,18,47,197,44,23,78,351,47*70
$GPGSV,2,2,06,24,63,094,46,32,19,254,41,,,,,,,,*7C
$GLGSV,2,1,07,65,60,346,44,66,24,284,42,72,30,064,41,74,30,052,35*6B
$GLGSV,2,2,07,75,33,118,43,81,33,312,45,88,41,241,46,,,,*57
$GAGSV,1,1,04,07,78,331,44,08,34,059,38,13,27,178,42,26,59,246,43*6D
$GNVTG,312.95,T,,M,0.01,N,0.01,K,D*2A
$GNGST,161805.80,1.896,,,,0.017,0.021,0.036*62
$GNZDA,161805.80,10,10,2023,00,00*78
$GNRMC,161806.80,A,4220.3417258,N,07105.0916900,W,0.04,312.95,101023,,,D*50
$GNGGA,161806.80,4220.3417258,N,07105.0916900,W,5,18,0.9,4.245,M,-28.723,M,0.8,0061*6D
$GPGSA,A,3,10,15,18,23,24,32,,,,,,,1.8,0.9,1.6*3F
$GLGSA,A,3,65,66,72,74,75,81,88,,,,,,1.8,0.9,1.6*27
$GAGSA,A,3,07,08,13,26,,,,,,,,,1.8,0.9,1.6*2D
$GBGSA,A,3,,,,,,,,,,,,,1.8,0.9,1.6*27
$GPGSV,2,1,06,10,41,307,45,15,40,063,43,18,47,197,44,23,78,351,47*70
$GPGSV,2,2,06,24,63,094,46,32,19,254,41,,,,,,,,*7C
$GLGSV,2,1,07,65,60,346,44,66,24,284,42,72,30,064,41,74,30,052,35*6B
$GLGSV,2,2,07,75,33,118,43,81,33,312,45,88,41,241,46,,,,*57
$GAGSV,1,1,04,07,78,331,44,08,34,059,38,13,27,178,42,26,59,246,43*6D
$GNVTG,312.95,T,,M,0.04,N,0.08,K,D*26
$GNGST,161806.80,1.857,,,,0.017,0.021,0.036*6C
$GNZDA,161806.80,10,10,2023,00,00*7B
$GNRMC,161807.80,A,4220.3417266,N,07105.0916863,W,0.03,312.95,101023,,,D*5F
$GNGGA,161807.80,4220.3417266,N,07105.0916863,W,5,18,0.9,4.242,M,-28.723,M,0.8,0061*62
$GPGSA,A,3,10,15,18,23,24,32,,,,,,,1.8,0.9,1.6*3F
$GLGSA,A,3,65,66,72,74,75,81,88,,,,,,1.8,0.9,1.6*27
$GAGSA,A,3,07,08,13,26,,,,,,,,,1.8,0.9,1.6*2D
$GBGSA,A,3,,,,,,,,,,,,,1.8,0.9,1.6*27
$GPGSV,2,1,06,10,41,307,45,15,40,063,43,18,47,197,44,23,78,351,47*70
$GPGSV,2,2,06,24,63,094,46,32,19,254,41,,,,,,,,*7C
$GLGSV,2,1,07,65,60,346,44,66,24,284,42,72,30,064,41,74,30,052,35*6B
$GLGSV,2,2,07,75,33,118,42,81,33,312,45,88,41,241,46,,,,*56
$GAGSV,1,1,04,07,78,331,44,08,34,059,38,13,27,178,42,26,59,246,43*6D
$GNVTG,312.95,T,,M,0.03,N,0.06,K,D*2F
$GNGST,161807.80,1.928,,,,0.017,0.021,0.036*64
$GNZDA,161807.80,10,10,2023,00,00*7A
$GNRMC,161808.80,A,4220.3417252,N,07105.0916864,W,0.02,312.95,101023,,,D*51
$GNGGA,161808.80,4220.3417252,N,07105.0916864,W,5,18,0.9,4.246,M,-28.723,M,0.8,0061*69
$GPGSA,A,3,10,15,18,23,24,32,,,,,,,1.8,0.9,1.6*3F
$GLGSA,A,3,65,66,72,74,75,81,88,,,,,,1.8,0.9,1.6*27
$GAGSA,A,3,07,08,13,26,,,,,,,,,1.8,0.9,1.6*2D
$GBGSA,A,3,,,,,,,,,,,,,1.8,0.9,1.6*27
$GPGSV,2,1,06,10,41,307,45,15,40,063,43,18,47,197,44,23,78,351,47*70
$GPGSV,2,2,06,24,63,094,46,32,19,254,41,,,,,,,,*7C
$GLGSV,2,1,07,65,60,347,44,66,24,284,42,72,30,064,41,74,30,052,35*6A
$GLGSV,2,2,07,75,33,118,42,81,33,312,45,88,41,241,46,,,,*56
$GAGSV,1,1,04,07,78,331,44,08,34,059,39,13,27,178,42,26,59,246,43*6C
$GNVTG,312.95,T,,M,0.02,N,0.04,K,D*2C
$GNGST,161808.80,1.721,,,,0.017,0.021,0.036*6C
$GNZDA,161808.80,10,10,2023,00,00*75
$GNRMC,161809.80,A,4220.3417256,N,07105.0916857,W,0.02,312.95,101023,,,D*54
$GNGGA,161809.80,4220.3417256,N,07105.0916857,W,5,18,0.9,4.246,M,-28.723,M,0.8,0061*6C
$GPGSA,A,3,10,15,18,23,24,32,,,,,,,1.8,0.9,1.6*3F
$GLGSA,A,3,65,66,72,74,75,81,88,,,,,,1.8,0.9,1.6*27
$GAGSA,A,3,07,08,13,26,,,,,,,,,1.8,0.9,1.6*2D
$GBGSA,A,3,,,,,,,,,,,,,1.8,0.9,1.6*27
$GPGSV,2,1,06,10,41,307,45,15,40,063,43,18,47,197,44,23,78,351,47*70
$GPGSV,2,2,06,24,63,094,46,32,19,254,41,,,,,,,,*7C
$GLGSV,2,1,07,65,60,347,44,66,24,284,42,72,30,064,41,74,30,052,35*6A
$GLGSV,2,2,07,75,33,118,42,81,33,312,45,88,41,241,46,,,,*56
$GAGSV,1,1,04,07,78,331,44,08,34,059,39,13,27,178,42,26,59,246,43*6C
$GNVTG,312.95,T,,M,0.02,N,0.04,K,D*2C
$GNGST,161809.80,1.931,,,,0.017,0.021,0.036*62
$GNZDA,161809.80,10,10,2023,00,00*74
$GNRMC,161810.80,A,4220.3417249,N,07105.0916844,W,0.01,312.95,101023,,,D*53
$GNGGA,161810.80,4220.3417249,N,07105.0916844,W,5,18,0.9,4.252,M,-28.723,M,0.8,0061*6D
$GPGSA,A,3,10,15,18,23,24,32,,,,,,,1.8,0.9,1.6*3F
$GLGSA,A,3,65,66,72,74,75,81,88,,,,,,1.8,0.9,1.6*27
$GAGSA,A,3,07,08,13,26,,,,,,,,,1.8,0.9,1.6*2D
$GBGSA,A,3,,,,,,,,,,,,,1.8,0.9,1.6*27
$GPGSV,2,1,06,10,41,307,45,15,40,063,43,18,47,197,44,23,78,351,47*70
$GPGSV,2,2,06,24,63,094,46,32,19,254,41,,,,,,,,*7C
$GLGSV,2,1,07,65,60,347,44,66,24,284,42,72,30,064,41,74,30,052,35*6A
$GLGSV,2,2,07,75,33,118,42,81,33,312,45,88,41,241,46,,,,*56
$GAGSV,1,1,04,07,78,331,44,08,34,059,39,13,27,178,42,26,59,246,43*6C
$GNVTG,312.95,T,,M,0.01,N,0.03,K,D*28
$GNGST,161810.80,1.995,,,,0.017,0.021,0.036*64
$GNZDA,161810.80,10,10,2023,00,00*7C
$GNRMC,161811.80,A,4220.3417229,N,07105.0916838,W,0.02,312.95,101023,,,D*5C
$GNGGA,161811.80,4220.3417229,N,07105.0916838,W,5,18,0.9,4.252,M,-28.723,M,1.8,0061*60
$GPGSA,A,3,10,15,18,23,24,32,,,,,,,1.8,0.9,1.6*3F
$GLGSA,A,3,65,66,72,74,75,81,88,,,,,,1.8,0.9,1.6*27
$GAGSA,A,3,07,08,13,26,,,,,,,,,1.8,0.9,1.6*2D
$GBGSA,A,3,,,,,,,,,,,,,1.8,0.9,1.6*27
$GPGSV,2,1,06,10,41,307,45,15,40,063,43,18,47,197,44,23,78,351,46*71
$GPGSV,2,2,06,24,63,094,46,32,19,254,41,,,,,,,,*7C
$GLGSV,2,1,07,65,60,347,44,66,24,284,42,72,30,064,41,74,30,052,35*6A
$GLGSV,2,2,07,75,33,118,42,81,33,312,45,88,41,241,46,,,,*56
$GAGSV,1,1,04,07,78,331,44,08,34,059,39,13,27,178,42,26,59,246,43*6C
$GNVTG,312.95,T,,M,0.02,N,0.04,K,D*2C
$GNGST,161811.80,1.857,,,,0.017,0.021,0.036*6A
$GNZDA,161811.80,10,10,2023,00,00*7D
$GNRMC,161812.80,A,4220.3417224,N,07105.0916826,W,0.06,312.95,101023,,,D*59
$GNGGA,161812.80,4220.3417224,N,07105.0916826,W,5,18,0.9,4.258,M,-28.723,M,0.8,0061*6A
$GPGSA,A,3,10,15,18,23,24,32,,,,,,,1.8,0.9,1.6*3F
$GLGSA,A,3,65,66,72,74,75,81,88,,,,,,1.8,0.9,1.6*27
$GAGSA,A,3,07,08,13,26,,,,,,,,,1.8,0.9,1.6*2D
$GBGSA,A,3,,,,,,,,,,,,,1.8,0.9,1.6*27
$GPGSV,2,1,06,10,41,307,45,15,40,063,43,18,47,197,44,23,78,351,46*71
$GPGSV,2,2,06,24,63,094,46,32,19,254,41,,,,,,,,*7C
$GLGSV,2,1,07,65,60,347,44,66,24,284,42,72,30,064,41,74,30,052,35*6A
$GLGSV,2,2,07,75,33,118,42,81,33,312,45,88,41,241,46,,,,*56
$GAGSV,1,1,04,07,78,331,44,08,34,059,38,13,27,178,42,26,59,246,43*6D
$GNVTG,312.95,T,,M,0.06,N,0.11,K,D*2C
$GNGST,161812.80,1.855,,,,0.017,0.021,0.036*6B
$GNZDA,161812.80,10,10,2023,00,00*7E
$GNRMC,161813.80,A,4220.3417225,N,07105.0916813,W,0.03,312.95,101023,,,D*5A
$GNGGA,161813.80,4220.3417225,N,07105.0916813,W,5,18,0.9,4.260,M,-28.723,M,0.8,0061*67
$GPGSA,A,3,10,15,18,23,24,32,,,,,,,1.8,0.9,1.6*3F
$GLGSA,A,3,65,66,72,74,75,81,88,,,,,,1.8,0.9,1.6*27
$GAGSA,A,3,07,08,13,26,,,,,,,,,1.8,0.9,1.6*2D
$GBGSA,A,3,,,,,,,,,,,,,1.8,0.9,1.6*27
$GPGSV,2,1,06,10,41,307,45,15,40,063,43,18,47,197,44,23,78,351,46*71
$GPGSV,2,2,06,24,63,094,46,32,19,254,41,,,,,,,,*7C
$GLGSV,2,1,07,65,60,347,44,66,24,284,42,72,30,064,41,74,30,052,35*6A
$GLGSV,2,2,07,75,33,118,42,81,33,312,45,88,41,241,46,,,,*56
$GAGSV,1,1,04,07,78,331,44,08,34,059,38,13,27,178,42,26,59,246,43*6D
$GNVTG,312.95,T,,M,0.03,N,0.05,K,D*2C
$GNGST,161813.80,1.833,,,,0.017,0.021,0.036*6A
$GNZDA,161813.80,10,10,2023,00,00*7F
$GNRMC,161814.80,A,4220.3417223,N,07105.0916825,W,0.03,312.95,101023,,,D*5E
$GNGGA,161814.80,4220.3417223,N,07105.0916825,W,5,18,0.9,4.263,M,-28.723,M,0.8,0061*60
$GPGSA,A,3,10,15,18,23,24,32,,,,,,,1.8,0.9,1.6*3F
$GLGSA,A,3,65,66,72,74,75,81,88,,,,,,1.8,0.9,1.6*27
$GAGSA,A,3,07,08,13,26,,,,,,,,,1.8,0.9,1.6*2D
$GBGSA,A,3,,,,,,,,,,,,,1.8,0.9,1.6*27
$GPGSV,2,1,06,10,41,307,45,15,40,063,43,18,47,197,44,23,78,351,47*70
$GPGSV,2,2,06,24,63,094,46,32,19,254,41,,,,,,,,*7C
$GLGSV,2,1,07,65,60,347,44,66,24,284,42,72,30,064,41,74,30,052,35*6A
$GLGSV,2,2,07,75,33,118,42,81,33,312,45,88,41,241,46,,,,*56
$GAGSV,1,1,04,07,78,331,44,08,34,059,38,13,27,178,42,26,59,246,43*6D
$GNVTG,312.95,T,,M,0.03,N,0.06,K,D*2F
$GNGST,161814.80,1.802,,,,0.017,0.021,0.036*6F
$GNZDA,161814.80,10,10,2023,00,00*78
$GNRMC,161815.80,A,4220.3417217,N,07105.0916822,W,0.02,312.95,101023,,,D*5E
$GNGGA,161815.80,4220.3417217,N,07105.0916822,W,5,18,0.9,4.266,M,-28.723,M,0.8,0061*64
$GPGSA,A,3,10,15,18,23,24,32,,,,,,,1.8,0.9,1.6*3F
$GLGSA,A,3,65,66,72,74,75,81,88,,,,,,1.8,0.9,1.6*27
$GAGSA,A,3,07,08,13,26,,,,,,,,,1.8,0.9,1.6*2D
$GBGSA,A,3,,,,,,,,,,,,,1.8,0.9,1.6*27
$GPGSV,2,1,06,10,41,307,45,15,40,063,43,18,47,197,44,23,78,351,46*71
$GPGSV,2,2,06,24,63,094,46,32,19,254,41,,,,,,,,*7C
$GLGSV,2,1,07,65,60,347,44,66,24,284,42,72,30,064,41,74,30,052,35*6A
$GLGSV,2,2,07,75,33,118,42,81,33,312,45,88,41,241,46,,,,*56
$GAGSV,1,1,04,07,78,331,44,08,34,059,38,13,27,178,42,26,59,246,43*6D
$GNVTG,312.95,T,,M,0.02,N,0.04,K,D*2C
$GNGST,161815.80,1.820,,,,0.016,0.021,0.036*6F
$GNZDA,161815.80,10,10,2023,00,00*79
$GNRMC,161816.80,A,4220.3417218,N,07105.0916814,W,0.05,312.95,101023,,,D*50
$GNGGA,161816.80,4220.3417218,N,07105.0916814,W,5,18,0.9,4.261,M,-28.723,M,0.8,0061*6A
$GPGSA,A,3,10,15,18,23,24,32,,,,,,,1.8,0.9,1.6*3F
$GLGSA,A,3,65,66,72,74,75,81,88,,,,,,1.8,0.9,1.6*27
$GAGSA,A,3,07,08,13,26,,,,,,,,,1.8,0.9,1.6*2D
$GBGSA,A,3,,,,,,,,,,,,,1.8,0.9,1.6*27
$GPGSV,2,1,06,10,41,307,45,15,40,063,43,18,47,197,44,23,78,352,46*72
$GPGSV,2,2,06,24,63,094,46,32,19,254,41,,,,,,,,*7C
$GLGSV,2,1,07,65,60,347,44,66,24,284,42,72,30,064,41,74,30,052,35*6A
$GLGSV,2,2,07,75,33,118,42,81,33,312,45,88,41,241,46,,,,*56
$GAGSV,1,1,04,07,78,331,44,08,34,059,38,13,27,178,42,26,59,246,43*6D
$GNVTG,312.95,T,,M,0.05,N,0.09,K,D*26
$GNGST,161816.80,1.732,,,,0.016,0.021,0.036*60
$GNZDA,161816.80,10,10,2023,00,00*7A
$GNRMC,161817.80,A,4220.3417221,N,07105.0916791,W,0.04,312.95,101023,,,D*58
$GNGGA,161817.80,4220.3417221,N,07105.0916791,W,5,18,0.9,4.265,M,-28.723,M,0.8,0061*67
$GPGSA,A,3,10,15,18,23,24,32,,,,,,,1.8,0.9,1.6*3F
$GLGSA,A,3,65,66,72,74,75,81,88,,,,,,1.8,0.9,1.6*27
$GAGSA,A,3,07,08,13,26,,,,,,,,,1.8,0.9,1.6*2D
$GBGSA,A,3,,,,,,,,,,,,,1.8,0.9,1.6*27
$GPGSV,2,1,06,10,41,307,45,15,39,063,43,18,47,197,44,23,78,352,46*7C
$GPGSV,2,2,06,24,63,094,46,32,19,254,41,,,,,,,,*7C
$GLGSV,2,1,07,65,60,347,44,66,24,284,42,72,30,064,41,74,30,052,35*6A
$GLGSV,2,2,07,75,33,118,42,81,33,312,45,88,41,241,46,,,,*56
$GAGSV,1,1,04,07,78,331,44,08,34,059,38,13,27,178,42,26,59,246,43*6D
$GNVTG,312.95,T,,M,0.04,N,0.07,K,D*29
$GNGST,161817.80,1.779,,,,0.016,0.021,0.035*6D
$GNZDA,161817.80,10,10,2023,00,00*7B
$GNRMC,161818.80,A,4220.3417216,N,07105.0916794,W,0.03,312.95,101023,,,D*51
