$GNRMC,162944.80,A,4220.2922609,N,07105.0791530,W,0.17,306.87,101023,,,D*54
$GNGGA,162944.80,4220.2922609,N,07105.0791530,W,5,12,1.5,4.609,M,-28.724,M,0.8,0061*61
$GPGSA,A,3,10,23,24,32,,,,,,,,,3.0,1.5,2.6*36
$GLGSA,A,3,65,66,75,81,88,,,,,,,,3.0,1.5,2.6*25
$GAGSA,A,3,07,26,,,,,,,,,,,3.0,1.5,2.6*23
$GBGSA,A,3,,,,,,,,,,,,,3.0,1.5,2.6*23
$GPGSV,1,1,04,10,46,310,49,23,81,018,48,24,61,082,48,32,23,258,40*70
$GLGSV,2,1,05,65,60,359,42,66,28,290,35,75,38,112,35,81,34,305,43*6A
$GLGSV,2,2,05,88,36,236,41,,,,,,,,,,,,*57
$GAGSV,1,1,02,07,77,350,45,26,56,239,45,,,,,,,,*64
$GNVTG,306.87,T,,M,0.17,N,0.31,K,D*28
$GNGST,162944.80,2.899,,,,0.192,0.091,0.304*6C
$GNZDA,162944.80,10,10,2023,00,00*7F
$GNRMC,162945.80,A,4220.2922085,N,07105.0790673,W,1.18,132.53,101023,,,D*50
$GNGGA,162945.80,4220.2922085,N,07105.0790673,W,5,11,1.2,4.536,M,-28.724,M,0.8,0061*6C
$GPGSA,A,3,10,18,23,24,,,,,,,,,2.9,1.2,2.6*31
$GLGSA,A,3,65,66,75,81,88,,,,,,,,2.9,1.2,2.6*2A
$GAGSA,A,3,07,26,,,,,,,,,,,2.9,1.2,2.6*2C
$GBGSA,A,3,,,,,,,,,,,,,2.9,1.2,2.6*2C
$GPGSV,1,1,04,10,46,310,46,18,42,195,35,23,81,018,45,24,61,082,48*7D
$GLGSV,2,1,05,65,60,359,40,66,28,290,36,75,38,112,35,81,34,305,43*6B
$GLGSV,2,2,05,88,36,236,40,,,,,,,,,,,,*56
$GAGSV,1,1,02,07,77,350,45,26,56,239,47,,,,,,,,*66
$GNVTG,132.53,T,,M,1.18,N,2.19,K,D*22
$GNGST,162945.80,4.657,,,,0.190,0.091,0.301*60
$GNZDA,162945.80,10,10,2023,00,00*7E
$GNRMC,162946.80,A,4220.2919404,N,07105.0787426,W,1.94,151.26,101023,,,D*51
$GNGGA,162946.80,4220.2919404,N,07105.0787426,W,5,10,2.2,4.527,M,-28.724,M,0.8,0061*6C
$GPGSA,A,3,10,23,24,,,,,,,,,,5.2,2.2,4.7*30
$GLGSA,A,3,65,66,81,88,,,,,,,,,5.2,2.2,4.7*20
$GAGSA,A,3,07,26,,,,,,,,,,,5.2,2.2,4.7*24
$GBGSA,A,3,,,,,,,,,,,,,5.2,2.2,4.7*24
$GPGSV,1,1,03,10,46,310,45,23,81,018,46,24,61,082,48,,,,*4E
$GLGSV,1,1,04,65,60,359,40,66,28,290,40,81,34,305,41,88,36,236,41*60
$GAGSV,1,1,02,07,77,350,45,26,56,239,46,,,,,,,,*67
$GNVTG,151.26,T,,M,1.94,N,3.60,K,D*2E
$GNGST,162946.80,1.091,,,,0.187,0.090,0.299*6D
$GNZDA,162946.80,10,10,2023,00,00*7D
$GNRMC,162947.80,A,4220.2915571,N,07105.0783497,W,2.41,169.11,101023,,,D*55
$GNGGA,162947.80,4220.2915571,N,07105.0783497,W,5,11,2.2,4.761,M,-28.724,M,0.8,0061*6D
$GPGSA,A,3,10,18,23,24,,,,,,,,,5.2,2.2,4.7*39
$GLGSA,A,3,65,66,74,81,88,,,,,,,,5.2,2.2,4.7*23
$GAGSA,A,3,07,26,,,,,,,,,,,5.2,2.2,4.7*24
$GBGSA,A,3,,,,,,,,,,,,,5.2,2.2,4.7*24
$GPGSV,1,1,04,10,46,310,47,18,42,195,35,23,81,018,44,24,61,082,46*73
$GLGSV,2,1,05,65,60,000,36,66,28,290,35,74,28,045,37,81,34,305,41*65
$GLGSV,2,2,05,88,36,236,47,,,,,,,,,,,,*51
$GAGSV,1,1,02,07,77,350,41,26,56,238,44,,,,,,,,*60
$GNVTG,169.11,T,,M,2.41,N,4.46,K,D*29
$GNGST,162947.80,0.812,,,,0.186,0.114,0.336*66
$GNZDA,162947.80,10,10,2023,00,00*7C
$GNRMC,162948.80,A,4220.2911932,N,07105.0776821,W,2.95,133.33,101023,,,D*58
$GNGGA,162948.80,4220.2911932,N,07105.0776821,W,5,08,3.9,4.905,M,-28.724,M,0.8,0061*68
$GPGSA,A,3,10,23,24,,,,,,,,,,6.2,3.9,4.8*36
$GLGSA,A,3,65,66,75,81,,,,,,,,,6.2,3.9,4.8*24
$GAGSA,A,3,07,,,,,,,,,,,,6.2,3.9,4.8*26
$GBGSA,A,3,,,,,,,,,,,,,6.2,3.9,4.8*22
$GPGSV,1,1,03,10,46,310,42,23,81,018,44,24,61,082,45,,,,*46
$GLGSV,1,1,04,65,60,000,43,66,28,290,41,75,38,112,35,81,34,305,35*64
$GAGSV,1,1,01,07,77,350,42,,,,,,,,,,,,*5E
$GNVTG,133.33,T,,M,2.95,N,5.47,K,D*2F
$GNGST,162948.80,1.680,,,,0.186,0.107,0.321*69
$GNZDA,162948.80,10,10,2023,00,00*73
$GNRMC,162949.80,A,4220.2906554,N,07105.0770745,W,2.80,132.74,101023,,,D*5E
$GNGGA,162949.80,4220.2906554,N,07105.0770745,W,5,08,3.5,4.867,M,-28.724,M,0.8,0061*61
$GPGSA,A,3,10,23,24,,,,,,,,,,4.8,3.5,3.3*3E
$GLGSA,A,3,65,66,75,81,,,,,,,,,4.8,3.5,3.3*2C
$GAGSA,A,3,07,,,,,,,,,,,,4.8,3.5,3.3*2E
$GBGSA,A,3,,,,,,,,,,,,,4.8,3.5,3.3*2A
$GPGSV,1,1,03,10,46,310,41,23,81,018,45,24,61,082,44,,,,*45
$GLGSV,1,1,04,65,60,000,40,66,28,290,41,75,38,112,36,81,34,305,41*67
$GAGSV,1,1,01,07,77,350,41,,,,,,,,,,,,*5D
$GNVTG,132.74,T,,M,2.80,N,5.18,K,D*23
$GNGST,162949.80,1.403,,,,0.185,0.106,0.319*68
$GNZDA,162949.80,10,10,2023,00,00*72
$GNRMC,162950.80,A,4220.2901377,N,07105.0764742,W,2.73,134.51,101023,,,D*59
$GNGGA,162950.80,4220.2901377,N,07105.0764742,W,5,07,3.9,4.828,M,-28.724,M,0.8,0061*63
$GPGSA,A,3,10,23,24,,,,,,,,,,6.2,3.9,4.8*36
$GLGSA,A,3,65,66,81,,,,,,,,,,6.2,3.9,4.8*26
$GAGSA,A,3,07,,,,,,,,,,,,6.2,3.9,4.8*26
$GBGSA,A,3,,,,,,,,,,,,,6.2,3.9,4.8*22
$GPGSV,1,1,03,10,46,310,44,23,81,018,44,24,61,082,45,,,,*40
$GLGSV,1,1,03,65,60,000,40,66,28,290,36,81,34,305,39,,,,*51
$GAGSV,1,1,01,07,77,351,43,,,,,,,,,,,,*5E
$GNVTG,134.51,T,,M,2.73,N,5.06,K,D*21
$GNGST,162950.80,1.029,,,,0.184,0.106,0.318*6C
$GNZDA,162950.80,10,10,2023,00,00*7A
$GNRMC,162951.80,A,4220.2896110,N,07105.0759205,W,2.42,128.16,101023,,,D*50
$GNGGA,162951.80,4220.2896110,N,07105.0759205,W,5,06,4.5,4.837,M,-28.724,M,0.8,0061*62
$GPGSA,A,3,10,23,24,,,,,,,,,,7.0,4.5,5.3*34
$GLGSA,A,3,65,81,,,,,,,,,,,7.0,4.5,5.3*24
$GAGSA,A,3,07,,,,,,,,,,,,7.0,4.5,5.3*24
$GBGSA,A,3,,,,,,,,,,,,,7.0,4.5,5.3*20
$GPGSV,1,1,03,10,46,310,44,23,81,018,42,24,61,082,47,,,,*44
$GLGSV,1,1,02,65,60,000,42,81,34,305,44,,,,,,,,*6C
$GAGSV,1,1,01,07,77,351,43,,,,,,,,,,,,*5E
$GNVTG,128.16,T,,M,2.42,N,4.48,K,D*26
$GNGST,162951.80,0.664,,,,0.188,0.106,0.317*60
$GNZDA,162951.80,10,10,2023,00,00*7B
$GNRMC,162952.80,A,4220.2890170,N,07105.0752920,W,2.19,137.35,101023,,,D*55
$GNGGA,162952.80,4220.2890170,N,07105.0752920,W,5,07,4.0,4.775,M,-28.724,M,0.8,0061*6B
$GPGSA,A,3,10,23,24,,,,,,,,,,5.2,4.0,3.3*37
$GLGSA,A,3,65,75,81,,,,,,,,,,5.2,4.0,3.3*25
$GAGSA,A,3,07,,,,,,,,,,,,5.2,4.0,3.3*27
$GBGSA,A,3,,,,,,,,,,,,,5.2,4.0,3.3*23
$GPGSV,1,1,03,10,46,310,44,23,81,018,41,24,61,082,44,,,,*44
$GLGSV,1,1,03,65,60,000,41,75,38,112,39,81,34,305,42,,,,*59
$GAGSV,1,1,01,07,77,351,42,,,,,,,,,,,,*5F
$GNVTG,137.35,T,,M,2.19,N,4.06,K,D*2D
$GNGST,162952.80,0.911,,,,0.184,0.106,0.315*60
$GNZDA,162952.80,10,10,2023,00,00*78
$GNRMC,162953.80,A,4220.2884474,N,07105.0747030,W,2.33,128.88,101023,,,D*5C
$GNGGA,162953.80,4220.2884474,N,07105.0747030,W,5,07,4.0,4.700,M,-28.724,M,0.8,0061*60
$GPGSA,A,3,10,23,24,,,,,,,,,,5.2,4.0,3.3*37
$GLGSA,A,3,65,75,81,,,,,,,,,,5.2,4.0,3.3*25
$GAGSA,A,3,07,,,,,,,,,,,,5.2,4.0,3.3*27
$GBGSA,A,3,,,,,,,,,,,,,5.2,4.0,3.3*23
$GPGSV,1,1,03,10,46,310,46,23,81,018,44,24,61,082,46,,,,*41
$GLGSV,1,1,03,65,60,000,40,75,38,112,41,81,34,305,37,,,,*55
$GAGSV,1,1,01,07,77,351,42,,,,,,,,,,,,*5F
$GNVTG,128.88,T,,M,2.33,N,4.32,K,D*2A
$GNGST,162953.80,0.923,,,,0.182,0.105,0.314*64
$GNZDA,162953.80,10,10,2023,00,00*79
$GNRMC,162954.80,A,4220.2878551,N,07105.0741747,W,2.86,155.49,101023,,,D*56
$GNGGA,162954.80,4220.2878551,N,07105.0741747,W,5,07,4.1,4.672,M,-28.724,M,0.8,0061*66
$GPGSA,A,3,10,18,23,24,,,,,,,,,5.7,4.1,3.9*30
$GLGSA,A,3,65,75,,,,,,,,,,,5.7,4.1,3.9*22
$GAGSA,A,3,07,,,,,,,,,,,,5.7,4.1,3.9*29
$GBGSA,A,3,,,,,,,,,,,,,5.7,4.1,3.9*2D
$GPGSV,1,1,04,10,46,310,45,18,42,195,36,23,81,018,44,24,61,082,45*71
$GLGSV,1,1,02,65,60,000,39,75,38,112,39,,,,,,,,*69
$GAGSV,1,1,01,07,77,351,45,,,,,,,,,,,,*58
$GNVTG,155.49,T,,M,2.86,N,5.29,K,D*28
$GNGST,162954.80,0.572,,,,0.187,0.109,0.319*6F
$GNZDA,162954.80,10,10,2023,00,00*7E
$GNRMC,162955.80,A,4220.2873030,N,07105.0736037,W,3.21,141.33,101023,,,D*5A
$GNGGA,162955.80,4220.2873030,N,07105.0736037,W,5,08,4.1,4.726,M,-28.724,M,0.8,0061*61
$GPGSA,A,3,10,15,23,24,,,,,,,,,5.7,4.1,3.9*3D
$GLGSA,A,3,65,75,,,,,,,,,,,5.7,4.1,3.9*22
$GAGSA,A,3,07,26,,,,,,,,,,,5.7,4.1,3.9*2D
$GBGSA,A,3,,,,,,,,,,,,,5.7,4.1,3.9*2D
$GPGSV,1,1,04,10,46,310,44,15,35,066,35,23,81,018,46,24,61,082,49*7D
$GLGSV,1,1,02,65,60,000,39,75,38,112,42,,,,,,,,*65
$GAGSV,1,1,02,07,77,351,45,26,56,238,39,,,,,,,,*6F
$GNVTG,141.33,T,,M,3.21,N,5.95,K,D*2B
$GNGST,162955.80,1.086,,,,0.185,0.108,0.318*63
$GNZDA,162955.80,10,10,2023,00,00*7F
$GNRMC,162956.80,A,4220.2867540,N,07105.0730286,W,2.52,145.56,101023,,,D*52
$GNGGA,162956.80,4220.2867540,N,07105.0730286,W,5,08,4.1,4.654,M,-28.724,M,0.8,0061*6F
$GPGSA,A,3,10,15,23,24,,,,,,,,,5.7,4.1,3.9*3D
$GLGSA,A,3,65,75,,,,,,,,,,,5.7,4.1,3.9*22
$GAGSA,A,3,07,26,,,,,,,,,,,5.7,4.1,3.9*2D
$GBGSA,A,3,,,,,,,,,,,,,5.7,4.1,3.9*2D
$GPGSV,1,1,04,10,46,310,42,15,35,066,36,23,81,018,47,24,61,082,46*76
$GLGSV,1,1,02,65,60,000,40,75,38,112,38,,,,,,,,*66
$GAGSV,1,1,02,07,77,351,46,26,56,238,37,,,,,,,,*62
$GNVTG,145.56,T,,M,2.52,N,4.66,K,D*24
$GNGST,162956.80,0.446,,,,0.184,0.108,0.317*67
$GNZDA,162956.80,10,10,2023,00,00*7C
$GNRMC,162957.80,A,4220.2861411,N,07105.0724420,W,3.63,154.80,101023,,,D*57
$GNGGA,162957.80,4220.2861411,N,07105.0724420,W,5,07,4.1,4.672,M,-28.724,M,0.8,0061*69
$GPGSA,A,3,10,18,23,24,,,,,,,,,5.7,4.1,3.9*30
$GLGSA,A,3,65,75,,,,,,,,,,,5.7,4.1,3.9*22
$GAGSA,A,3,07,,,,,,,,,,,,5.7,4.1,3.9*29
$GBGSA,A,3,,,,,,,,,,,,,5.7,4.1,3.9*2D
$GPGSV,1,1,04,10,46,310,35,18,42,195,36,23,81,018,44,24,61,082,43*70
$GLGSV,1,1,02,65,60,000,36,75,38,112,36,,,,,,,,*69
$GAGSV,1,1,01,07,77,351,43,,,,,,,,,,,,*5E
$GNVTG,154.80,T,,M,3.63,N,6.72,K,D*2B
$GNGST,162957.80,1.202,,,,0.183,0.107,0.316*68
$GNZDA,162957.80,10,10,2023,00,00*7D
$GNRMC,162958.80,A,4220.2856270,N,07105.0718649,W,2.51,143.49,101023,,,D*5C
$GNGGA,162958.80,4220.2856270,N,07105.0718649,W,5,06,4.1,4.885,M,-28.724,M,0.8,0061*66
$GPGSA,A,3,10,23,24,,,,,,,,,,5.7,4.1,3.9*39
$GLGSA,A,3,65,75,,,,,,,,,,,5.7,4.1,3.9*22
$GAGSA,A,3,07,,,,,,,,,,,,5.7,4.1,3.9*29
$GBGSA,A,3,,,,,,,,,,,,,5.7,4.1,3.9*2D
$GPGSV,1,1,03,10,46,310,35,23,81,019,46,24,61,082,45,,,,*45
$GLGSV,1,1,02,65,60,000,36,75,38,112,35,,,,,,,,*6A
$GAGSV,1,1,01,07,77,351,43,,,,,,,,,,,,*5E
$GNVTG,143.49,T,,M,2.51,N,4.65,K,D*2C
$GNGST,162958.80,0.517,,,,0.182,0.107,0.315*67
$GNZDA,162958.80,10,10,2023,00,00*72
$GNRMC,162959.80,A,4220.2851056,N,07105.0711815,W,3.57,122.18,101023,,,D*56
$GNGGA,162959.80,4220.2851056,N,07105.0711815,W,5,07,6.2,5.366,M,-28.724,M,0.8,0061*6F
$GPGSA,A,3,18,23,24,,,,,,,,,,9.1,6.2,6.6*30
$GLGSA,A,3,65,75,,,,,,,,,,,9.1,6.2,6.6*23
$GAGSA,A,3,07,26,,,,,,,,,,,9.1,6.2,6.6*2C
$GBGSA,A,3,,,,,,,,,,,,,9.1,6.2,6.6*2C
$GPGSV,1,1,03,18,42,195,36,23,81,019,45,24,61,082,45,,,,*46
$GLGSV,1,1,02,65,60,000,35,75,38,112,41,,,,,,,,*6A
$GAGSV,1,1,02,07,77,351,43,26,56,238,36,,,,,,,,*66
$GNVTG,122.18,T,,M,3.57,N,6.62,K,D*2D
$GNGST,162959.80,3.166,,,,0.205,0.247,0.978*6D
$GNZDA,162959.80,10,10,2023,00,00*73
$GNRMC,163000.80,A,4220.2841634,N,07105.0691468,W,7.90,138.96,101023,,,D*5C
$GNGGA,163000.80,4220.2841634,N,07105.0691468,W,5,06,6.2,13.983,M,-28.724,M,0.8,0061*50
$GPGSA,A,3,18,23,24,,,,,,,,,,9.1,6.2,6.6*30
$GLGSA,A,3,65,75,,,,,,,,,,,9.1,6.2,6.6*23
$GAGSA,A,3,07,,,,,,,,,,,,9.1,6.2,6.6*28
$GBGSA,A,3,,,,,,,,,,,,,9.1,6.2,6.6*2C
$GPGSV,1,1,03,18,42,195,35,23,81,019,44,24,61,082,45,,,,*44
$GLGSV,1,1,02,65,60,000,39,75,38,112,38,,,,,,,,*68
$GAGSV,1,1,01,07,77,351,42,,,,,,,,,,,,*5F
$GNVTG,138.96,T,,M,7.90,N,14.64,K,D*1A
$GNGST,163000.80,1.537,,,,0.427,0.898,3.716*60
$GNZDA,163000.80,10,10,2023,00,00*77
$GNRMC,163001.80,A,4220.2825558,N,07105.0665818,W,11.44,0.00,101023,,,A*68
$GNGGA,163001.80,4220.2825558,N,07105.0665818,W,1,04,80.4,25.575,M,-28.724,M,0.8,*63
$GPGSA,A,3,23,24,,,,,,,,,,,188.7,80.4,170.7*0E
$GLGSA,A,3,65,,,,,,,,,,,,188.7,80.4,170.7*16
$GAGSA,A,3,07,,,,,,,,,,,,188.7,80.4,170.7*1F
$GBGSA,A,3,,,,,,,,,,,,,188.7,80.4,170.7*1B
$GPGSV,1,1,02,23,81,019,43,24,61,082,40,,,,,,,,*73
$GLGSV,1,1,01,65,60,000,40,,,,,,,,,,,,*55
$GAGSV,1,1,01,07,77,351,39,,,,,,,,,,,,*53
$GNVTG,0.00,T,,M,11.44,N,21.18,K,A*29
$GNGST,163001.80,0.259,,,,1.351,2.217,9.189*6D
$GNZDA,163001.80,10,10,2023,00,00*76
$GNRMC,163002.80,A,4220.2812609,N,07105.0630614,W,12.04,134.60,101023,,,D*68
$GNGGA,163002.80,4220.2812609,N,07105.0630614,W,5,05,6.2,42.151,M,-28.724,M,0.8,0061*58
$GPGSA,A,3,23,24,,,,,,,,,,,9.1,6.2,6.6*39
$GLGSA,A,3,65,75,,,,,,,,,,,9.1,6.2,6.6*23
$GAGSA,A,3,07,,,,,,,,,,,,9.1,6.2,6.6*28
$GBGSA,A,3,,,,,,,,,,,,,9.1,6.2,6.6*2C
$GPGSV,1,1,02,23,81,019,44,24,61,082,39,,,,,,,,*7A
$GLGSV,1,1,02,65,60,000,43,75,38,112,39,,,,,,,,*64
$GAGSV,1,1,01,07,77,351,39,,,,,,,,,,,,*53
$GNVTG,134.60,T,,M,12.04,N,22.30,K,D*22
$GNGST,163002.80,0.459,,,,1.939,4.305,17.891*57
$GNZDA,163002.80,10,10,2023,00,00*75
$GNRMC,163003.80,A,4220.2785467,N,07105.0547570,W,19.91,0.00,101023,,,D*67
$GNGGA,163003.80,4220.2785467,N,07105.0547570,W,5,07,4.3,85.747,M,-28.724,M,0.8,0061*5B
$GPGSA,A,3,15,18,23,24,,,,,,,,,7.9,4.3,6.6*31
$GLGSA,A,3,65,75,,,,,,,,,,,7.9,4.3,6.6*26
$GAGSA,A,3,07,,,,,,,,,,,,7.9,4.3,6.6*2D
$GBGSA,A,3,,,,,,,,,,,,,7.9,4.3,6.6*29
$GPGSV,1,1,04,15,35,066,35,18,41,195,37,23,81,019,44,24,61,082,42*71
$GLGSV,1,1,02,65,60,000,40,75,38,112,36,,,,,,,,*68
$GAGSV,1,1,01,07,77,351,39,,,,,,,,,,,,*53
$GNVTG,0.00,T,,M,19.91,N,36.87,K,D*2C
$GNGST,163003.80,0.806,,,,1.199,2.289,9.410*6B
$GNZDA,163003.80,10,10,2023,00,00*74
$GNRMC,163004.80,A,4220.2796854,N,07105.0600439,W,4.20,105.16,101023,,,D*57
$GNGGA,163004.80,4220.2796854,N,07105.0600439,W,5,05,6.2,52.425,M,-28.724,M,0.8,0061*52
$GPGSA,A,3,23,24,,,,,,,,,,,9.1,6.2,6.6*39
$GLGSA,A,3,65,75,,,,,,,,,,,9.1,6.2,6.6*23
$GAGSA,A,3,07,,,,,,,,,,,,9.1,6.2,6.6*28
$GBGSA,A,3,,,,,,,,,,,,,9.1,6.2,6.6*2C
$GPGSV,1,1,02,23,81,019,44,24,61,082,41,,,,,,,,*75
$GLGSV,1,1,02,65,60,000,43,75,38,112,35,,,,,,,,*68
$GAGSV,1,1,01,07,77,351,38,,,,,,,,,,,,*52
$GNVTG,105.16,T,,M,4.20,N,7.78,K,D*2B
$GNGST,163004.80,2.854,,,,0.768,1.245,5.070*6D
$GNZDA,163004.80,10,10,2023,00,00*73
$GNRMC,163005.80,A,4220.2812695,N,07105.0616226,W,12.15,0.00,101023,,,A*6E
$GNGGA,163005.80,4220.2812695,N,07105.0616226,W,1,05,5.5,38.505,M,-28.724,M,0.8,*54
$GPGSA,A,3,23,24,,,,,,,,,,,8.6,5.5,6.6*3B
$GLGSA,A,3,65,75,,,,,,,,,,,8.6,5.5,6.6*21
$GAGSA,A,3,07,,,,,,,,,,,,8.6,5.5,6.6*2A
$GBGSA,A,3,,,,,,,,,,,,,8.6,5.5,6.6*2E
$GPGSV,1,1,02,23,81,019,47,24,61,082,46,,,,,,,,*71
$GLGSV,1,1,02,65,60,000,43,75,38,112,37,,,,,,,,*6A
$GAGSV,1,1,01,07,77,351,42,,,,,,,,,,,,*5F
$GNVTG,0.00,T,,M,12.15,N,22.51,K,A*20
$GNGST,163005.80,0.136,,,,1.248,1.287,5.223*6F
$GNZDA,163005.80,10,10,2023,00,00*72
$GNRMC,163006.80,A,4220.2811878,N,07105.0655586,W,13.97,143.62,101023,,,D*65
$GNGGA,163006.80,4220.2811878,N,07105.0655586,W,5,06,6.2,14.151,M,-28.724,M,0.8,0061*5C
$GPGSA,A,3,18,23,24,,,,,,,,,,9.1,6.2,6.6*30
$GLGSA,A,3,65,75,,,,,,,,,,,9.1,6.2,6.6*23
$GAGSA,A,3,07,,,,,,,,,,,,9.1,6.2,6.6*28
$GBGSA,A,3,,,,,,,,,,,,,9.1,6.2,6.6*2C
$GPGSV,1,1,03,18,41,195,39,23,81,019,47,24,61,082,40,,,,*4D
$GLGSV,1,1,02,65,60,000,43,75,38,112,45,,,,,,,,*6F
$GAGSV,1,1,01,07,77,351,42,,,,,,,,,,,,*5F
$GNVTG,143.62,T,,M,13.97,N,25.87,K,D*20
$GNGST,163006.80,0.829,,,,1.262,2.458,10.157*50
$GNZDA,163006.80,10,10,2023,00,00*71
$GNRMC,163007.80,A,4220.2805502,N,07105.0645883,W,7.41,141.41,101023,,,D*55
$GNGGA,163007.80,4220.2805502,N,07105.0645883,W,5,06,6.2,16.354,M,-28.724,M,0.8,0061*54
$GPGSA,A,3,15,23,24,,,,,,,,,,9.1,6.2,6.6*3D
$GLGSA,A,3,65,75,,,,,,,,,,,9.1,6.2,6.6*23
$GAGSA,A,3,07,,,,,,,,,,,,9.1,6.2,6.6*28
$GBGSA,A,3,,,,,,,,,,,,,9.1,6.2,6.6*2C
$GPGSV,1,1,03,15,35,066,35,23,81,019,42,24,61,082,45,,,,*42
$GLGSV,1,1,02,65,60,000,38,75,38,112,44,,,,,,,,*62
$GAGSV,1,1,01,07,77,351,39,,,,,,,,,,,,*53
$GNVTG,141.41,T,,M,7.41,N,13.71,K,D*11
$GNGST,163007.80,1.191,,,,1.440,2.603,10.884*57
$GNZDA,163007.80,10,10,2023,00,00*70
$GNRMC,163008.80,A,4220.2810246,N,07105.0676250,W,9.92,153.97,101023,,,D*55
$GNGGA,163008.80,4220.2810246,N,07105.0676250,W,5,05,6.2,-4.199,M,-28.724,M,0.8,0061*42
$GPGSA,A,3,23,24,,,,,,,,,,,9.1,6.2,6.6*39
$GLGSA,A,3,65,75,,,,,,,,,,,9.1,6.2,6.6*23
$GAGSA,A,3,07,,,,,,,,,,,,9.1,6.2,6.6*28
$GBGSA,A,3,,,,,,,,,,,,,9.1,6.2,6.6*2C
$GPGSV,1,1,02,23,81,019,42,24,61,082,45,,,,,,,,*77
$GLGSV,1,1,02,65,60,000,36,75,38,112,47,,,,,,,,*6F
$GAGSV,1,1,01,07,77,351,41,,,,,,,,,,,,*5C
$GNVTG,153.97,T,,M,9.92,N,18.37,K,D*10
$GNGST,163008.80,0.609,,,,2.253,4.793,19.938*59
$GNZDA,163008.80,10,10,2023,00,00*7F
$GNRMC,163009.80,A,4220.2817766,N,07105.0713042,W,11.37,150.46,101023,,,D*6E
$GNGGA,163009.80,4220.2817766,N,07105.0713042,W,5,05,6.2,-28.752,M,-28.724,M,0.8,0061*7F
$GPGSA,A,3,23,24,,,,,,,,,,,9.1,6.2,6.6*39
$GLGSA,A,3,65,75,,,,,,,,,,,9.1,6.2,6.6*23
$GAGSA,A,3,07,,,,,,,,,,,,9.1,6.2,6.6*28
$GBGSA,A,3,,,,,,,,,,,,,9.1,6.2,6.6*2C
$GPGSV,1,1,02,23,81,019,45,24,61,082,39,,,,,,,,*7B
$GLGSV,1,1,02,65,60,000,44,75,38,112,44,,,,,,,,*69
$GAGSV,1,1,01,07,77,351,41,,,,,,,,,,,,*5C
$GNVTG,150.46,T,,M,11.37,N,21.05,K,D*22
$GNGST,163009.80,0.621,,,,3.465,7.885,32.693*5C
$GNZDA,163009.80,10,10,2023,00,00*7E
$GNRMC,163010.80,A,4220.2825091,N,07105.0756006,W,13.71,148.43,101023,,,D*65
$GNGGA,163010.80,4220.2825091,N,07105.0756006,W,5,05,6.2,-55.777,M,-28.724,M,0.8,0061*75
$GPGSA,A,3,23,24,,,,,,,,,,,9.1,6.2,6.6*39
$GLGSA,A,3,65,75,,,,,,,,,,,9.1,6.2,6.6*23
$GAGSA,A,3,07,,,,,,,,,,,,9.1,6.2,6.6*28
$GBGSA,A,3,,,,,,,,,,,,,9.1,6.2,6.6*2C
$GPGSV,1,1,02,23,81,019,44,24,61,082,47,,,,,,,,*73
$GLGSV,1,1,02,65,60,000,37,75,38,112,43,,,,,,,,*6A
$GAGSV,1,1,01,07,77,351,44,,,,,,,,,,,,*59
$GNVTG,148.43,T,,M,13.71,N,25.40,K,D*2B
$GNGST,163010.80,0.250,,,,5.094,11.960,49.487*6C
$GNZDA,163010.80,10,10,2023,00,00*76
$GNRMC,163011.80,A,4220.2783898,N,07105.0633199,W,3.15,145.97,101023,,,D*54
$GNGGA,163011.80,4220.2783898,N,07105.0633199,W,5,05,6.2,11.496,M,-28.724,M,0.8,0061*52
$GPGSA,A,3,23,24,,,,,,,,,,,9.1,6.2,6.6*39
$GLGSA,A,3,65,75,,,,,,,,,,,9.1,6.2,6.6*23
$GAGSA,A,3,07,,,,,,,,,,,,9.1,6.2,6.6*28
$GBGSA,A,3,,,,,,,,,,,,,9.1,6.2,6.6*2C
$GPGSV,1,1,02,23,81,019,45,24,61,082,43,,,,,,,,*76
$GLGSV,1,1,02,65,60,000,43,75,38,112,45,,,,,,,,*6F
$GAGSV,1,1,01,07,77,351,46,,,,,,,,,,,,*5B
$GNVTG,145.97,T,,M,3.15,N,5.83,K,D*21
$GNGST,163011.80,0.395,,,,3.016,7.180,29.618*5A
$GNZDA,163011.80,10,10,2023,00,00*77
$GNRMC,163012.80,A,4220.2774668,N,07105.0614857,W,2.81,142.19,101023,,,D*5D
$GNGGA,163012.80,4220.2774668,N,07105.0614857,W,5,08,4.1,19.002,M,-28.724,M,0.8,0061*5B
$GPGSA,A,3,10,15,23,24,,,,,,,,,5.7,4.1,3.9*3D
$GLGSA,A,3,65,75,,,,,,,,,,,5.7,4.1,3.9*22
$GAGSA,A,3,07,26,,,,,,,,,,,5.7,4.1,3.9*2D
$GBGSA,A,3,,,,,,,,,,,,,5.7,4.1,3.9*2D
$GPGSV,1,1,04,10,46,310,36,15,35,066,35,23,82,019,47,24,61,082,48*7A
$GLGSV,1,1,02,65,60,000,44,75,38,112,48,,,,,,,,*65
$GAGSV,1,1,02,07,77,351,49,26,56,238,35,,,,,,,,*6F
$GNVTG,142.19,T,,M,2.81,N,5.20,K,D*25
$GNGST,163012.80,0.081,,,,0.692,0.819,3.295*61
$GNZDA,163012.80,10,10,2023,00,00*74
$GNRMC,163013.80,A,4220.2769210,N,07105.0609810,W,2.50,146.22,101023,,,D*54
$GNGGA,163013.80,4220.2769210,N,07105.0609810,W,5,06,6.2,18.688,M,-28.724,M,0.8,0061*58
$GPGSA,A,3,15,23,24,,,,,,,,,,9.1,6.2,6.6*3D
$GLGSA,A,3,65,75,,,,,,,,,,,9.1,6.2,6.6*23
$GAGSA,A,3,07,,,,,,,,,,,,9.1,6.2,6.6*28
$GBGSA,A,3,,,,,,,,,,,,,9.1,6.2,6.6*2C
$GPGSV,1,1,03,15,35,066,37,23,82,019,46,24,61,082,47,,,,*45
$GLGSV,1,1,02,65,60,000,45,75,38,112,47,,,,,,,,*6B
$GAGSV,1,1,01,07,77,351,48,,,,,,,,,,,,*55
$GNVTG,146.22,T,,M,2.50,N,4.63,K,D*23
$GNGST,163013.80,0.114,,,,0.665,0.739,2.953*68
$GNZDA,163013.80,10,10,2023,00,00*75
$GNRMC,163014.80,A,4220.2762995,N,07105.0593238,W,2.35,151.90,101023,,,D*52
$GNGGA,163014.80,4220.2762995,N,07105.0593238,W,5,07,6.2,24.595,M,-28.724,M,0.8,0061*53
$GPGSA,A,3,15,23,24,,,,,,,,,,9.1,6.2,6.6*3D
$GLGSA,A,3,65,75,,,,,,,,,,,9.1,6.2,6.6*23
$GAGSA,A,3,07,26,,,,,,,,,,,9.1,6.2,6.6*2C
$GBGSA,A,3,,,,,,,,,,,,,9.1,6.2,6.6*2C
$GPGSV,1,1,03,15,35,066,42,23,82,019,48,24,61,082,51,,,,*4E
$GLGSV,1,1,02,65,60,000,47,75,38,112,50,,,,,,,,*6F
$GAGSV,1,1,02,07,77,351,49,26,56,238,35,,,,,,,,*6F
$GNVTG,151.90,T,,M,2.35,N,4.35,K,D*2C
$GNGST,163014.80,0.351,,,,0.650,0.696,2.790*6F
$GNZDA,163014.80,10,10,2023,00,00*72
$GNRMC,163015.80,A,4220.2755251,N,07105.0582859,W,2.91,156.46,101023,,,D*5B
$GNGGA,163015.80,4220.2755251,N,07105.0582859,W,5,08,4.9,27.392,M,-28.724,M,0.8,0061*5C
$GPGSA,A,3,15,23,24,,,,,,,,,,8.0,4.9,6.4*36
$GLGSA,A,3,65,72,75,,,,,,,,,,8.0,4.9,6.4*2D
$GAGSA,A,3,07,26,,,,,,,,,,,8.0,4.9,6.4*27
$GBGSA,A,3,,,,,,,,,,,,,8.0,4.9,6.4*27
$GPGSV,1,1,03,15,35,066,47,23,82,019,47,24,61,082,47,,,,*43
$GLGSV,1,1,03,65,60,000,47,72,26,069,41,75,38,112,48,,,,*5C
$GAGSV,1,1,02,07,77,351,48,26,56,238,36,,,,,,,,*6D
$GNVTG,156.46,T,,M,2.91,N,5.40,K,D*2D
$GNGST,163015.80,2.321,,,,0.631,0.634,2.528*65
$GNZDA,163015.80,10,10,2023,00,00*73
$GNRMC,163016.80,A,4220.2750478,N,07105.0578238,W,2.01,141.06,101023,,,D*53
$GNGGA,163016.80,4220.2750478,N,07105.0578238,W,5,08,4.3,26.388,M,-28.724,M,0.8,0061*5F
$GPGSA,A,3,15,23,24,,,,,,,,,,7.9,4.3,6.6*38
$GLGSA,A,3,65,72,75,,,,,,,,,,7.9,4.3,6.6*23
$GAGSA,A,3,07,08,,,,,,,,,,,7.9,4.3,6.6*25
$GBGSA,A,3,,,,,,,,,,,,,7.9,4.3,6.6*29
$GPGSV,1,1,03,15,35,066,41,23,82,019,43,24,61,082,40,,,,*46
$GLGSV,1,1,03,65,60,000,43,72,26,069,35,75,38,112,44,,,,*57
$GAGSV,1,1,02,07,77,351,45,08,31,061,38,,,,,,,,*6D
$GNVTG,141.06,T,,M,2.01,N,3.72,K,D*21
$GNGST,163016.80,1.156,,,,0.596,0.577,2.234*67
$GNZDA,163016.80,10,10,2023,00,00*70
$GNRMC,163017.80,A,4220.2745743,N,07105.0575345,W,2.31,135.68,101023,,,D*53
$GNGGA,163017.80,4220.2745743,N,07105.0575345,W,5,08,4.3,24.872,M,-28.724,M,0.8,0061*5B
$GPGSA,A,3,15,23,24,,,,,,,,,,7.4,4.3,6.0*33
$GLGSA,A,3,65,72,75,,,,,,,,,,7.4,4.3,6.0*28
$GAGSA,A,3,07,08,,,,,,,,,,,7.4,4.3,6.0*2E
$GBGSA,A,3,,,,,,,,,,,,,7.4,4.3,6.0*22
$GPGSV,1,1,03,15,35,066,47,23,82,020,44,24,61,082,45,,,,*48
$GLGSV,1,1,03,65,60,000,42,72,26,069,41,75,38,112,41,,,,*50
$GAGSV,1,1,02,07,77,351,45,08,31,061,44,,,,,,,,*66
$GNVTG,135.68,T,,M,2.31,N,4.28,K,D*21
$GNGST,163017.80,2.389,,,,0.571,0.537,2.026*69
$GNZDA,163017.80,10,10,2023,00,00*71
$GNRMC,163018.80,A,4220.2740461,N,07105.0569145,W,2.71,162.59,101023,,,D*51
$GNGGA,163018.80,4220.2740461,N,07105.0569145,W,5,06,4.3,24.051,M,-28.724,M,0.8,0061*5A
$GPGSA,A,3,15,23,24,,,,,,,,,,7.9,4.3,6.6*38
$GLGSA,A,3,65,75,,,,,,,,,,,7.9,4.3,6.6*26
$GAGSA,A,3,07,,,,,,,,,,,,7.9,4.3,6.6*2D
$GBGSA,A,3,,,,,,,,,,,,,7.9,4.3,6.6*29
$GPGSV,1,1,03,15,35,066,42,23,82,020,46,24,61,082,46,,,,*4C
$GLGSV,1,1,02,65,60,000,43,75,38,112,44,,,,,,,,*6E
$GAGSV,1,1,01,07,77,351,41,,,,,,,,,,,,*5C
$GNVTG,162.59,T,,M,2.71,N,5.02,K,D*2C
$GNGST,163018.80,1.585,,,,0.551,0.507,1.868*6F
$GNZDA,163018.80,10,10,2023,00,00*7E
$GNRMC,163019.80,A,4220.2735844,N,07105.0563585,W,2.01,161.64,101023,,,D*51
$GNGGA,163019.80,4220.2735844,N,07105.0563585,W,5,07,4.3,22.932,M,-28.724,M,0.8,0061*5B
$GPGSA,A,3,15,23,24,,,,,,,,,,7.9,4.3,6.6*38
$GLGSA,A,3,65,72,75,,,,,,,,,,7.9,4.3,6.6*23
$GAGSA,A,3,07,,,,,,,,,,,,7.9,4.3,6.6*2D
$GBGSA,A,3,,,,,,,,,,,,,7.9,4.3,6.6*29
$GPGSV,1,1,03,15,35,066,46,23,82,020,46,24,61,082,45,,,,*4B
$GLGSV,1,1,03,65,60,000,40,72,26,069,38,75,38,112,46,,,,*5B
$GAGSV,1,1,01,07,77,351,43,,,,,,,,,,,,*5E
$GNVTG,161.64,T,,M,2.01,N,3.73,K,D*26
$GNGST,163019.80,1.810,,,,0.535,0.486,1.757*66
$GNZDA,163019.80,10,10,2023,00,00*7F
$GNRMC,163020.80,A,4220.2730474,N,07105.0558778,W,1.77,0.00,101023,,,D*5F
$GNGGA,163020.80,4220.2730474,N,07105.0558778,W,5,08,4.3,22.325,M,-28.724,M,0.8,0061*50
$GPGSA,A,3,15,23,24,,,,,,,,,,7.4,4.3,6.0*33
$GLGSA,A,3,65,72,75,,,,,,,,,,7.4,4.3,6.0*28
$GAGSA,A,3,07,08,,,,,,,,,,,7.4,4.3,6.0*2E
$GBGSA,A,3,,,,,,,,,,,,,7.4,4.3,6.0*22
$GPGSV,1,1,03,15,35,066,35,23,82,020,45,24,61,082,45,,,,*4C
$GLGSV,1,1,03,65,60,000,38,72,26,069,42,75,38,112,45,,,,*5A
$GAGSV,1,1,02,07,77,351,42,08,31,061,36,,,,,,,,*64
$GNVTG,0.00,T,,M,1.77,N,3.27,K,D*21
$GNGST,163020.80,2.328,,,,0.523,0.469,1.661*6D
$GNZDA,163020.80,10,10,2023,00,00*75
$GNRMC,163021.80,A,4220.2726090,N,07105.0552846,W,2.57,128.40,101023,,,D*51
$GNGGA,163021.80,4220.2726090,N,07105.0552846,W,5,09,4.3,21.863,M,-28.724,M,0.8,0061*5B
$GPGSA,A,3,15,23,24,,,,,,,,,,7.9,4.3,6.6*38
$GLGSA,A,3,65,72,74,75,,,,,,,,,7.9,4.3,6.6*20
$GAGSA,A,3,07,08,,,,,,,,,,,7.9,4.3,6.6*25
$GBGSA,A,3,,,,,,,,,,,,,7.9,4.3,6.6*29
$GPGSV,1,1,03,15,35,066,46,23,82,020,42,24,61,081,45,,,,*4C
$GLGSV,1,1,04,65,60,000,45,72,26,069,35,74,28,045,36,75,38,112,46*69
$GAGSV,1,1,02,07,77,351,43,08,31,061,36,,,,,,,,*65
$GNVTG,128.40,T,,M,2.57,N,4.75,K,D*2F
$GNGST,163021.80,1.380,,,,0.511,0.455,1.584*6B
$GNZDA,163021.80,10,10,2023,00,00*74
$GNRMC,163022.80,A,4220.2721170,N,07105.0548975,W,2.95,136.51,101023,,,D*51
$GNGGA,163022.80,4220.2721170,N,07105.0548975,W,5,08,4.3,20.663,M,-28.724,M,0.8,0061*54
$GPGSA,A,3,15,23,24,,,,,,,,,,7.9,4.3,6.6*38
$GLGSA,A,3,65,72,75,,,,,,,,,,7.9,4.3,6.6*23
$GAGSA,A,3,07,08,,,,,,,,,,,7.9,4.3,6.6*25
$GBGSA,A,3,,,,,,,,,,,,,7.9,4.3,6.6*29
$GPGSV,1,1,03,15,35,066,40,23,82,020,45,24,61,081,46,,,,*4E
$GLGSV,1,1,03,65,60,000,44,72,26,069,42,75,38,112,45,,,,*51
$GAGSV,1,1,02,07,77,351,44,08,31,061,38,,,,,,,,*6C
$GNVTG,136.51,T,,M,2.95,N,5.46,K,D*2F
$GNGST,163022.80,1.492,,,,0.500,0.444,1.525*67
$GNZDA,163022.80,10,10,2023,00,00*77
$GNRMC,163023.80,A,4220.2715485,N,07105.0545313,W,2.43,174.79,101023,,,D*58
$GNGGA,163023.80,4220.2715485,N,07105.0545313,W,5,08,9.1,19.554,M,-28.724,M,0.8,0061*58
$GPGSA,A,3,15,23,24,,,,,,,,,,14.2,9.1,10.9*36
$GLGSA,A,3,65,72,75,,,,,,,,,,14.2,9.1,10.9*2D
$GAGSA,A,3,07,08,,,,,,,,,,,14.2,9.1,10.9*2B
$GBGSA,A,3,,,,,,,,,,,,,14.2,9.1,10.9*27
$GPGSV,1,1,03,15,35,066,43,23,82,020,44,24,61,081,47,,,,*4D
$GLGSV,1,1,03,65,60,000,42,72,26,069,38,75,38,112,42,,,,*5D
$GAGSV,1,1,02,07,77,351,44,08,31,061,40,,,,,,,,*63
$GNVTG,174.79,T,,M,2.43,N,4.50,K,D*2E
$GNGST,163023.80,3.504,,,,0.543,0.436,1.455*6E
$GNZDA,163023.80,10,10,2023,00,00*76
$GNRMC,163024.80,A,4220.2710265,N,07105.0538043,W,3.56,150.85,101023,,,D*5E
$GNGGA,163024.80,4220.2710265,N,07105.0538043,W,5,06,6.2,19.713,M,-28.724,M,0.8,0061*5D
$GPGSA,A,3,23,24,,,,,,,,,,,9.1,6.2,6.7*38
$GLGSA,A,3,65,75,,,,,,,,,,,9.1,6.2,6.7*22
$GAGSA,A,3,07,08,,,,,,,,,,,9.1,6.2,6.7*21
$GBGSA,A,3,,,,,,,,,,,,,9.1,6.2,6.7*2D
$GPGSV,1,1,02,23,82,020,39,24,61,081,41,,,,,,,,*75
$GLGSV,1,1,02,65,60,000,36,75,38,112,35,,,,,,,,*6A
$GAGSV,1,1,02,07,77,351,39,08,31,061,35,,,,,,,,*6B
$GNVTG,150.85,T,,M,3.56,N,6.60,K,D*2F
$GNGST,163024.80,1.175,,,,0.537,0.431,1.428*67
$GNZDA,163024.80,10,10,2023,00,00*71
$GNRMC,163025.80,A,4220.2703281,N,07105.0531281,W,2.91,159.25,101023,,,D*5B
$GNGGA,163025.80,4220.2703281,N,07105.0531281,W,5,07,4.9,20.576,M,-28.724,M,0.8,0061*52
$GPGSA,A,3,15,23,24,,,,,,,,,,8.0,4.9,6.4*36
$GLGSA,A,3,65,72,75,,,,,,,,,,8.0,4.9,6.4*2D
$GAGSA,A,3,07,,,,,,,,,,,,8.0,4.9,6.4*23
$GBGSA,A,3,,,,,,,,,,,,,8.0,4.9,6.4*27
$GPGSV,1,1,03,15,35,066,36,23,82,020,40,24,61,081,40,,,,*4C
$GLGSV,1,1,03,65,60,000,36,72,26,069,39,75,38,112,37,,,,*5D
$GAGSV,1,1,01,07,77,351,39,,,,,,,,,,,,*53
$GNVTG,159.25,T,,M,2.91,N,5.40,K,D*27
$GNGST,163025.80,1.744,,,,0.559,0.558,2.057*6B
$GNZDA,163025.80,10,10,2023,00,00*70
$GNRMC,163026.80,A,4220.2695832,N,07105.0530492,W,1.12,178.17,101023,,,D*5B
$GNGGA,163026.80,4220.2695832,N,07105.0530492,W,5,08,6.2,19.677,M,-28.724,M,0.8,0061*56
$GPGSA,A,3,15,23,24,,,,,,,,,,9.1,6.2,6.7*3C
$GLGSA,A,3,65,72,75,,,,,,,,,,9.1,6.2,6.7*27
$GAGSA,A,3,07,08,,,,,,,,,,,9.1,6.2,6.7*21
$GBGSA,A,3,,,,,,,,,,,,,9.1,6.2,6.7*2D
$GPGSV,1,1,03,15,35,066,37,23,82,020,38,24,61,081,38,,,,*4D
$GLGSV,1,1,03,65,60,000,38,72,26,069,37,75,38,112,39,,,,*53
$GAGSV,1,1,02,07,77,351,39,08,31,061,37,,,,,,,,*69
$GNVTG,178.17,T,,M,1.12,N,2.08,K,D*26
$GNGST,163026.80,1.537,,,,0.538,0.543,1.972*6E
$GNZDA,163026.80,10,10,2023,00,00*73
$GNRMC,163027.80,A,4220.2690016,N,07105.0526094,W,2.91,161.00,101023,,,A*57
$GNGGA,163027.80,4220.2690016,N,07105.0526094,W,1,05,13.3,19.229,M,-28.724,M,0.8,*6D
$GPGSA,A,3,23,,,,,,,,,,,,24.1,13.3,20.1*06
$GLGSA,A,3,65,72,75,,,,,,,,,,24.1,13.3,20.1*1F
$GAGSA,A,3,07,,,,,,,,,,,,24.1,13.3,20.1*11
$GBGSA,A,3,,,,,,,,,,,,,24.1,13.3,20.1*15
$GPGSV,1,1,01,23,82,020,40,,,,,,,,,,,,*45
$GLGSV,1,1,03,65,60,000,38,72,26,069,36,75,38,112,35,,,,*5E
$GAGSV,1,1,01,07,77,351,41,,,,,,,,,,,,*5C
$GNVTG,161.00,T,,M,2.91,N,5.39,K,A*20
$GNGST,163027.80,0.850,,,,0.525,0.521,1.826*6A
$GNZDA,163027.80,10,10,2023,00,00*72
$GNRMC,163028.80,A,4220.2682590,N,07105.0522428,W,2.70,158.02,101023,,,D*55
$GNGGA,163028.80,4220.2682590,N,07105.0522428,W,5,06,4.4,18.621,M,-28.724,M,0.8,0061*51
$GPGSA,A,3,15,23,24,,,,,,,,,,7.9,4.4,6.6*3F
$GLGSA,A,3,65,75,,,,,,,,,,,7.9,4.4,6.6*21
$GAGSA,A,3,07,,,,,,,,,,,,7.9,4.4,6.6*2A
$GBGSA,A,3,,,,,,,,,,,,,7.9,4.4,6.6*2E
$GPGSV,1,1,03,15,35,066,37,23,82,020,43,24,61,081,43,,,,*4D
$GLGSV,1,1,02,65,60,000,37,75,38,112,35,,,,,,,,*6B
$GAGSV,1,1,01,07,77,351,42,,,,,,,,,,,,*5F
$GNVTG,158.02,T,,M,2.70,N,5.01,K,D*29
$GNGST,163028.80,1.502,,,,0.522,0.551,1.765*66
$GNZDA,163028.80,10,10,2023,00,00*7D
$GNRMC,163029.80,A,4220.2676734,N,07105.0516781,W,2.68,139.75,101023,,,D*5A
$GNGGA,163029.80,4220.2676734,N,07105.0516781,W,5,07,4.4,18.350,M,-28.724,M,0.8,0061*52
$GPGSA,A,3,15,23,24,,,,,,,,,,7.9,4.4,6.6*3F
$GLGSA,A,3,65,75,,,,,,,,,,,7.9,4.4,6.6*21
$GAGSA,A,3,07,08,,,,,,,,,,,7.9,4.4,6.6*22
$GBGSA,A,3,,,,,,,,,,,,,7.9,4.4,6.6*2E
$GPGSV,1,1,03,15,35,066,35,23,82,020,46,24,61,081,47,,,,*4E
$GLGSV,1,1,02,65,60,000,35,75,38,112,42,,,,,,,,*69
$GAGSV,1,1,02,07,77,352,44,08,31,061,35,,,,,,,,*62
$GNVTG,139.75,T,,M,2.68,N,4.96,K,D*28
$GNGST,163029.80,1.595,,,,0.513,0.528,1.680*6F
$GNZDA,163029.80,10,10,2023,00,00*7C
$GNRMC,163030.80,A,4220.2671517,N,07105.0511301,W,2.16,138.09,101023,,,D*5E
$GNGGA,163030.80,4220.2671517,N,07105.0511301,W,5,07,6.2,17.474,M,-28.725,M,0.8,0061*5E
$GPGSA,A,3,23,24,,,,,,,,,,,9.1,6.2,6.7*38
$GLGSA,A,3,65,72,75,,,,,,,,,,9.1,6.2,6.7*27
$GAGSA,A,3,07,08,,,,,,,,,,,9.1,6.2,6.7*21
$GBGSA,A,3,,,,,,,,,,,,,9.1,6.2,6.7*2D
$GPGSV,1,1,02,23,82,020,43,24,61,081,41,,,,,,,,*78
$GLGSV,1,1,03,65,60,000,37,72,26,069,37,75,38,112,37,,,,*52
$GAGSV,1,1,02,07,77,352,42,08,31,061,35,,,,,,,,*64
$GNVTG,138.09,T,,M,2.16,N,4.00,K,D*24
$GNGST,163030.80,0.678,,,,0.505,0.521,1.639*6A
$GNZDA,163030.80,10,10,2023,00,00*74
$GNRMC,163031.80,A,4220.2664517,N,07105.0505314,W,2.87,129.61,101023,,,D*5C
$GNGGA,163031.80,4220.2664517,N,07105.0505314,W,5,06,6.2,17.369,M,-28.725,M,0.8,0061*50
$GPGSA,A,3,23,24,,,,,,,,,,,9.1,6.2,6.7*38
$GLGSA,A,3,65,72,75,,,,,,,,,,9.1,6.2,6.7*27
$GAGSA,A,3,07,,,,,,,,,,,,9.1,6.2,6.7*29
$GBGSA,A,3,,,,,,,,,,,,,9.1,6.2,6.7*2D
$GPGSV,1,1,02,23,82,020,40,24,61,081,39,,,,,,,,*74
$GLGSV,1,1,03,65,60,000,36,72,26,069,36,75,38,112,41,,,,*53
$GAGSV,1,1,01,07,77,352,40,,,,,,,,,,,,*5E
$GNVTG,129.61,T,,M,2.87,N,5.31,K,D*21
$GNGST,163031.80,1.239,,,,0.520,0.642,2.237*63
$GNZDA,163031.80,10,10,2023,00,00*75
$GNRMC,163032.80,A,4220.2659513,N,07105.0499705,W,2.72,136.32,101023,,,D*57
$GNGGA,163032.80,4220.2659513,N,07105.0499705,W,5,06,4.4,16.990,M,-28.725,M,0.8,0061*50
$GPGSA,A,3,15,23,24,,,,,,,,,,8.0,4.4,6.7*38
$GLGSA,A,3,65,75,,,,,,,,,,,8.0,4.4,6.7*26
$GAGSA,A,3,07,,,,,,,,,,,,8.0,4.4,6.7*2D
$GBGSA,A,3,,,,,,,,,,,,,8.0,4.4,6.7*29
$GPGSV,1,1,03,15,35,066,35,23,82,020,42,24,61,081,43,,,,*4E
$GLGSV,1,1,02,65,60,000,36,75,38,112,42,,,,,,,,*6A
$GAGSV,1,1,01,07,77,352,41,,,,,,,,,,,,*5F
$GNVTG,136.32,T,,M,2.72,N,5.04,K,D*25
$GNGST,163032.80,0.949,,,,0.518,0.569,1.860*67
$GNZDA,163032.80,10,10,2023,00,00*76
$GNRMC,163033.80,A,4220.2653295,N,07105.0494559,W,3.55,0.00,101023,,,D*52
$GNGGA,163033.80,4220.2653295,N,07105.0494559,W,5,05,6.2,16.939,M,-28.725,M,0.8,0061*50
$GPGSA,A,3,23,24,,,,,,,,,,,9.1,6.2,6.7*38
$GLGSA,A,3,65,75,,,,,,,,,,,9.1,6.2,6.7*22
$GAGSA,A,3,07,,,,,,,,,,,,9.1,6.2,6.7*29
$GBGSA,A,3,,,,,,,,,,,,,9.1,6.2,6.7*2D
$GPGSV,1,1,02,23,82,020,42,24,61,081,43,,,,,,,,*7B
$GLGSV,1,1,02,65,60,000,36,75,38,112,42,,,,,,,,*6A
$GAGSV,1,1,01,07,77,352,41,,,,,,,,,,,,*5F
$GNVTG,0.00,T,,M,3.55,N,6.57,K,D*21
$GNGST,163033.80,1.067,,,,0.506,0.548,1.762*63
$GNZDA,163033.80,10,10,2023,00,00*77
$GNRMC,163034.80,A,4220.2646454,N,07105.0489380,W,3.06,141.03,101023,,,D*55
$GNGGA,163034.80,4220.2646454,N,07105.0489380,W,5,07,5.5,16.833,M,-28.725,M,0.8,0061*5B
$GPGSA,A,3,15,23,24,,,,,,,,,,9.2,5.5,7.3*3E
$GLGSA,A,3,72,75,,,,,,,,,,,9.2,5.5,7.3*26
$GAGSA,A,3,07,08,,,,,,,,,,,9.2,5.5,7.3*23
$GBGSA,A,3,,,,,,,,,,,,,9.2,5.5,7.3*2F
$GPGSV,1,1,03,15,35,066,41,23,82,020,43,24,61,081,45,,,,*4A
$GLGSV,1,1,02,72,26,069,39,75,38,112,45,,,,,,,,*69
$GAGSV,1,1,02,07,77,352,40,08,31,061,38,,,,,,,,*6B
$GNVTG,141.03,T,,M,3.06,N,5.66,K,D*21
$GNGST,163034.80,2.226,,,,0.843,0.632,1.926*6C
$GNZDA,163034.80,10,10,2023,00,00*70
$GNRMC,163035.80,A,4220.2641267,N,07105.0483324,W,3.33,131.39,101023,,,D*59
$GNGGA,163035.80,4220.2641267,N,07105.0483324,W,5,08,4.3,16.490,M,-28.725,M,0.8,0061*52
$GPGSA,A,3,15,23,24,,,,,,,,,,7.5,4.3,6.1*33
$GLGSA,A,3,65,72,75,,,,,,,,,,7.5,4.3,6.1*28
$GAGSA,A,3,07,08,,,,,,,,,,,7.5,4.3,6.1*2E
$GBGSA,A,3,,,,,,,,,,,,,7.5,4.3,6.1*22
$GPGSV,1,1,03,15,35,066,40,23,82,020,42,24,61,081,43,,,,*4C
$GLGSV,1,1,03,65,60,000,38,72,26,069,42,75,38,112,45,,,,*5A
$GAGSV,1,1,02,07,77,352,41,08,31,061,37,,,,,,,,*65
$GNVTG,131.39,T,,M,3.33,N,6.17,K,D*2C
$GNGST,163035.80,2.420,,,,0.495,0.524,1.633*65
$GNZDA,163035.80,10,10,2023,00,00*71
$GNRMC,163036.80,A,4220.2632994,N,07105.0482392,W,3.01,132.48,101023,,,D*51
$GNGGA,163036.80,4220.2632994,N,07105.0482392,W,5,09,1.9,14.131,M,-28.725,M,0.8,0061*5C
$GPGSA,A,3,15,18,23,24,,,,,,,,,3.6,1.9,3.0*36
$GLGSA,A,3,65,72,75,,,,,,,,,,3.6,1.9,3.0*24
$GAGSA,A,3,07,08,,,,,,,,,,,3.6,1.9,3.0*22
$GBGSA,A,3,,,,,,,,,,,,,3.6,1.9,3.0*2E
$GPGSV,1,1,04,15,35,066,44,18,41,194,40,23,82,021,42,24,61,081,44*7D
$GLGSV,1,1,03,65,60,000,41,72,26,069,45,75,38,112,46,,,,*50
$GAGSV,1,1,02,07,77,352,43,08,31,061,43,,,,,,,,*64
$GNVTG,132.48,T,,M,3.01,N,5.58,K,D*20
$GNGST,163036.80,3.580,,,,0.445,0.440,1.395*6B
$GNZDA,163036.80,10,10,2023,00,00*72
$GNRMC,163037.80,A,4220.2625316,N,07105.0479586,W,2.61,136.47,101023,,,D*5D
$GNGGA,163037.80,4220.2625316,N,07105.0479586,W,5,09,1.9,12.690,M,-28.725,M,0.8,0061*56
$GPGSA,A,3,15,18,23,24,,,,,,,,,3.6,1.9,3.0*36
$GLGSA,A,3,65,72,75,,,,,,,,,,3.6,1.9,3.0*24
$GAGSA,A,3,07,08,,,,,,,,,,,3.6,1.9,3.0*22
$GBGSA,A,3,,,,,,,,,,,,,3.6,1.9,3.0*2E
$GPGSV,1,1,04,15,35,067,45,18,41,194,42,23,82,021,43,24,61,081,45*7F
$GLGSV,1,1,03,65,60,000,40,72,26,069,45,75,38,112,46,,,,*51
$GAGSV,1,1,02,07,77,352,40,08,31,061,41,,,,,,,,*65
$GNVTG,136.47,T,,M,2.61,N,4.83,K,D*2B
$GNGST,163037.80,4.198,,,,0.415,0.395,1.260*61
$GNZDA,163037.80,10,10,2023,00,00*73
$GNRMC,163038.80,A,4220.2618668,N,07105.0473627,W,3.35,140.30,101023,,,D*53
$GNGGA,163038.80,4220.2618668,N,07105.0473627,W,5,11,1.9,12.515,M,-28.725,M,0.8,0061*5E
$GPGSA,A,3,10,15,18,23,24,,,,,,,,3.6,1.9,3.0*37
$GLGSA,A,3,65,72,75,,,,,,,,,,3.6,1.9,3.0*24
$GAGSA,A,3,07,08,26,,,,,,,,,,3.6,1.9,3.0*26
$GBGSA,A,3,,,,,,,,,,,,,3.6,1.9,3.0*2E
$GPGSV,2,1,05,10,46,310,35,15,35,067,44,18,41,194,43,23,82,021,45*75
$GPGSV,2,2,05,24,61,081,46,,,,,,,,,,,,*46
$GLGSV,1,1,03,65,60,000,40,72,26,069,44,75,38,112,46,,,,*50
$GAGSV,1,1,03,07,77,352,41,08,31,061,39,26,56,238,38,,,,*5F
$GNVTG,140.30,T,,M,3.35,N,6.20,K,D*21
$GNGST,163038.80,3.069,,,,0.393,0.364,1.165*67
$GNZDA,163038.80,10,10,2023,00,00*7C
$GNRMC,163039.80,A,4220.2610688,N,07105.0470231,W,2.91,140.28,101023,,,D*52
$GNGGA,163039.80,4220.2610688,N,07105.0470231,W,5,11,1.5,11.296,M,-28.725,M,0.8,0061*5A
$GPGSA,A,3,15,18,23,24,,,,,,,,,2.7,1.5,2.3*38
$GLGSA,A,3,65,72,75,88,,,,,,,,,2.7,1.5,2.3*2A
$GAGSA,A,3,07,08,26,,,,,,,,,,2.7,1.5,2.3*28
$GBGSA,A,3,,,,,,,,,,,,,2.7,1.5,2.3*20
$GPGSV,1,1,04,15,35,067,43,18,41,194,38,23,82,021,41,24,61,081,44*77
$GLGSV,1,1,04,65,60,000,37,72,26,069,38,75,38,112,44,88,35,235,38*67
$GAGSV,1,1,03,07,77,352,39,08,31,061,38,26,56,238,39,,,,*50
$GNVTG,140.28,T,,M,2.91,N,5.38,K,D*2D
$GNGST,163039.80,1.746,,,,0.374,0.331,1.070*62
$GNZDA,163039.80,10,10,2023,00,00*7D
$GNRMC,163040.80,A,4220.2603745,N,07105.0464710,W,2.76,147.18,101023,,,D*50
$GNGGA,163040.80,4220.2603745,N,07105.0464710,W,5,10,1.7,11.054,M,-28.725,M,0.8,0061*5A
$GPGSA,A,3,15,23,24,,,,,,,,,,2.8,1.7,2.3*3C
$GLGSA,A,3,65,72,75,88,,,,,,,,,2.8,1.7,2.3*27
$GAGSA,A,3,07,08,26,,,,,,,,,,2.8,1.7,2.3*25
$GBGSA,A,3,,,,,,,,,,,,,2.8,1.7,2.3*2D
$GPGSV,1,1,03,15,35,067,43,23,82,021,44,24,61,081,43,,,,*49
$GLGSV,1,1,04,65,60,001,36,72,26,069,40,75,38,112,46,88,35,235,39*6B
$GAGSV,1,1,03,07,77,352,40,08,31,061,39,26,56,238,39,,,,*5F
$GNVTG,147.18,T,,M,2.76,N,5.11,K,D*2B
$GNGST,163040.80,1.452,,,,0.366,0.319,1.025*63
$GNZDA,163040.80,10,10,2023,00,00*73
$GNRMC,163041.80,A,4220.2597356,N,07105.0460382,W,2.08,147.96,101023,,,D*5D
$GNGGA,163041.80,4220.2597356,N,07105.0460382,W,5,09,1.8,10.642,M,-28.725,M,0.8,0061*5F
$GPGSA,A,3,15,23,24,,,,,,,,,,3.5,1.8,3.0*3D
$GLGSA,A,3,65,75,88,,,,,,,,,,3.5,1.8,3.0*23
$GAGSA,A,3,07,08,26,,,,,,,,,,3.5,1.8,3.0*24
$GBGSA,A,3,,,,,,,,,,,,,3.5,1.8,3.0*2C
$GPGSV,1,1,03,15,35,067,43,23,82,021,45,24,61,081,46,,,,*4D
$GLGSV,1,1,03,65,60,001,36,75,38,112,42,88,35,235,42,,,,*5E
$GAGSV,1,1,03,07,77,352,41,08,31,061,40,26,56,238,40,,,,*5E
$GNVTG,147.96,T,,M,2.08,N,3.85,K,D*2F
$GNGST,163041.80,1.199,,,,0.358,0.308,0.985*6F
$GNZDA,163041.80,10,10,2023,00,00*72
$GNRMC,163042.80,A,4220.2591174,N,07105.0455251,W,2.21,148.69,101023,,,D*57
$GNGGA,163042.80,4220.2591174,N,07105.0455251,W,5,09,1.8,10.407,M,-28.725,M,0.8,0061*52
$GPGSA,A,3,15,23,24,,,,,,,,,,3.5,1.8,3.0*3D
$GLGSA,A,3,65,75,88,,,,,,,,,,3.5,1.8,3.0*23
$GAGSA,A,3,07,08,26,,,,,,,,,,3.5,1.8,3.0*24
$GBGSA,A,3,,,,,,,,,,,,,3.5,1.8,3.0*2C
$GPGSV,1,1,03,15,35,067,38,23,82,021,43,24,61,081,47,,,,*46
$GLGSV,1,1,03,65,60,001,37,75,38,112,43,88,35,235,42,,,,*5E
$GAGSV,1,1,03,07,77,352,41,08,31,061,38,26,56,238,39,,,,*5F
$GNVTG,148.69,T,,M,2.21,N,4.09,K,D*28
$GNGST,163042.80,1.228,,,,0.352,0.299,0.952*6C
$GNZDA,163042.80,10,10,2023,00,00*71
$GNRMC,163043.80,A,4220.2584851,N,07105.0449337,W,2.95,146.96,101023,,,D*51
$GNGGA,163043.80,4220.2584851,N,07105.0449337,W,5,07,2.5,10.291,M,-28.725,M,0.8,0061*5C
$GPGSA,A,3,23,24,,,,,,,,,,,5.5,2.5,4.9*3F
$GLGSA,A,3,65,75,88,,,,,,,,,,5.5,2.5,4.9*25
$GAGSA,A,3,07,26,,,,,,,,,,,5.5,2.5,4.9*2A
$GBGSA,A,3,,,,,,,,,,,,,5.5,2.5,4.9*2A
$GPGSV,1,1,02,23,82,021,42,24,61,081,45,,,,,,,,*7C
$GLGSV,1,1,03,65,60,001,37,75,38,112,46,88,35,235,39,,,,*57
$GAGSV,1,1,02,07,77,352,39,26,56,238,37,,,,,,,,*69
$GNVTG,146.96,T,,M,2.95,N,5.46,K,D*23
$GNGST,163043.80,0.987,,,,0.349,0.292,0.935*62
$GNZDA,163043.80,10,10,2023,00,00*70
$GNRMC,163044.80,A,4220.2578752,N,07105.0442985,W,3.33,143.17,101023,,,D*50
$GNGGA,163044.80,4220.2578752,N,07105.0442985,W,5,07,2.5,10.319,M,-28.725,M,0.8,0061*5D
$GPGSA,A,3,23,24,,,,,,,,,,,5.5,2.5,4.9*3F
$GLGSA,A,3,65,75,88,,,,,,,,,,5.5,2.5,4.9*25
$GAGSA,A,3,07,26,,,,,,,,,,,5.5,2.5,4.9*2A
$GBGSA,A,3,,,,,,,,,,,,,5.5,2.5,4.9*2A
$GPGSV,1,1,02,23,82,021,41,24,61,081,44,,,,,,,,*7E
$GLGSV,1,1,03,65,60,001,36,75,38,112,42,88,35,235,37,,,,*5C
$GAGSV,1,1,02,07,77,352,39,26,56,238,39,,,,,,,,*67
$GNVTG,143.17,T,,M,3.33,N,6.17,K,D*25
$GNGST,163044.80,0.930,,,,0.346,0.286,0.921*66
$GNZDA,163044.80,10,10,2023,00,00*77
$GNRMC,163045.80,A,4220.2573112,N,07105.0437322,W,2.04,153.01,101023,,,D*5E
$GNGGA,163045.80,4220.2573112,N,07105.0437322,W,5,05,6.2,9.856,M,-28.725,M,0.8,0061*69
$GPGSA,A,3,23,24,,,,,,,,,,,9.1,6.2,6.7*38
$GLGSA,A,3,65,75,,,,,,,,,,,9.1,6.2,6.7*22
$GAGSA,A,3,07,,,,,,,,,,,,9.1,6.2,6.7*29
$GBGSA,A,3,,,,,,,,,,,,,9.1,6.2,6.7*2D
$GPGSV,1,1,02,23,82,021,43,24,61,081,45,,,,,,,,*7D
$GLGSV,1,1,02,65,60,001,40,75,38,112,42,,,,,,,,*6A
$GAGSV,1,1,01,07,77,352,41,,,,,,,,,,,,*5F
$GNVTG,153.01,T,,M,2.04,N,3.79,K,D*2B
$GNGST,163045.80,0.824,,,,0.359,0.407,1.475*6F
$GNZDA,163045.80,10,10,2023,00,00*76
$GNRMC,163046.80,A,4220.2567627,N,07105.0433809,W,1.75,148.25,101023,,,D*56
$GNGGA,163046.80,4220.2567627,N,07105.0433809,W,5,05,6.2,8.948,M,-28.725,M,0.8,0061*67
$GPGSA,A,3,23,24,,,,,,,,,,,9.1,6.2,6.7*38
$GLGSA,A,3,65,75,,,,,,,,,,,9.1,6.2,6.7*22
$GAGSA,A,3,07,,,,,,,,,,,,9.1,6.2,6.7*29
$GBGSA,A,3,,,,,,,,,,,,,9.1,6.2,6.7*2D
$GPGSV,1,1,02,23,82,021,43,24,61,081,42,,,,,,,,*7A
$GLGSV,1,1,02,65,60,001,40,75,38,112,42,,,,,,,,*6A
$GAGSV,1,1,01,07,77,352,42,,,,,,,,,,,,*5C
$GNVTG,148.25,T,,M,1.75,N,3.24,K,D*2A
$GNGST,163046.80,0.861,,,,0.527,1.137,4.499*62
$GNZDA,163046.80,10,10,2023,00,00*75
$GNRMC,163047.80,A,4220.2561733,N,07105.0430402,W,2.41,146.72,101023,,,D*59
$GNGGA,163047.80,4220.2561733,N,07105.0430402,W,5,05,6.2,7.519,M,-28.725,M,0.8,0061*67
$GPGSA,A,3,23,24,,,,,,,,,,,9.1,6.2,6.7*38
$GLGSA,A,3,65,75,,,,,,,,,,,9.1,6.2,6.7*22
$GAGSA,A,3,07,,,,,,,,,,,,9.1,6.2,6.7*29
$GBGSA,A,3,,,,,,,,,,,,,9.1,6.2,6.7*2D
$GPGSV,1,1,02,23,82,021,42,24,61,081,44,,,,,,,,*7D
$GLGSV,1,1,02,65,60,001,41,75,38,112,46,,,,,,,,*6F
$GAGSV,1,1,01,07,77,352,40,,,,,,,,,,,,*5E
$GNVTG,146.72,T,,M,2.41,N,4.47,K,D*20
$GNGST,163047.80,0.919,,,,1.012,2.633,10.508*53
$GNZDA,163047.80,10,10,2023,00,00*74
$GNRMC,163048.80,A,4220.2556191,N,07105.0427178,W,1.13,145.49,101023,,,D*5D
$GNGGA,163048.80,4220.2556191,N,07105.0427178,W,5,05,6.2,5.574,M,-28.725,M,0.8,0061*65
$GPGSA,A,3,23,24,,,,,,,,,,,9.1,6.2,6.7*38
$GLGSA,A,3,65,75,,,,,,,,,,,9.1,6.2,6.7*22
$GAGSA,A,3,07,,,,,,,,,,,,9.1,6.2,6.7*29
$GBGSA,A,3,,,,,,,,,,,,,9.1,6.2,6.7*2D
$GPGSV,1,1,02,23,82,021,46,24,61,081,46,,,,,,,,*7B
$GLGSV,1,1,02,65,60,001,42,75,38,112,41,,,,,,,,*6B
$GAGSV,1,1,01,07,77,352,41,,,,,,,,,,,,*5F
$GNVTG,145.49,T,,M,1.13,N,2.09,K,D*23
$GNGST,163048.80,0.847,,,,1.837,4.983,19.900*56
$GNZDA,163048.80,10,10,2023,00,00*7B
$GNRMC,163049.80,A,4220.2551453,N,07105.0425584,W,1.68,154.92,101023,,,D*5F
$GNGGA,163049.80,4220.2551453,N,07105.0425584,W,5,05,6.2,3.183,M,-28.725,M,0.8,0061*67
$GPGSA,A,3,23,24,,,,,,,,,,,9.1,6.2,6.7*38
$GLGSA,A,3,65,75,,,,,,,,,,,9.1,6.2,6.7*22
$GAGSA,A,3,07,,,,,,,,,,,,9.1,6.2,6.7*29
$GBGSA,A,3,,,,,,,,,,,,,9.1,6.2,6.7*2D
$GPGSV,1,1,02,23,82,021,45,24,61,081,41,,,,,,,,*7F
$GLGSV,1,1,02,65,60,001,41,75,38,112,45,,,,,,,,*6C
$GAGSV,1,1,01,07,77,352,40,,,,,,,,,,,,*5E
$GNVTG,154.92,T,,M,1.68,N,3.12,K,D*22
$GNGST,163049.80,0.995,,,,3.017,8.294,33.109*59
$GNZDA,163049.80,10,10,2023,00,00*7A
$GNRMC,163050.80,A,4220.2543126,N,07105.0412146,W,3.12,147.39,101023,,,D*51
$GNGGA,163050.80,4220.2543126,N,07105.0412146,W,5,07,4.0,7.434,M,-28.725,M,0.8,0061*6A
$GPGSA,A,3,10,15,23,24,,,,,,,,,5.6,4.0,3.9*3D
$GLGSA,A,3,65,75,,,,,,,,,,,5.6,4.0,3.9*22
$GAGSA,A,3,07,,,,,,,,,,,,5.6,4.0,3.9*29
$GBGSA,A,3,,,,,,,,,,,,,5.6,4.0,3.9*2D
$GPGSV,1,1,04,10,47,310,35,15,35,067,35,23,82,021,43,24,61,081,40*7D
$GLGSV,1,1,02,65,60,001,43,75,38,112,46,,,,,,,,*6D
$GAGSV,1,1,01,07,77,352,40,,,,,,,,,,,,*5E
$GNVTG,147.39,T,,M,3.12,N,5.78,K,D*24
$GNGST,163050.80,0.976,,,,0.389,0.686,2.700*69
$GNZDA,163050.80,10,10,2023,00,00*72
$GNRMC,163051.80,A,4220.2538153,N,07105.0410235,W,2.93,130.54,101023,,,D*58
$GNGGA,163051.80,4220.2538153,N,07105.0410235,W,5,05,6.2,5.369,M,-28.725,M,0.8,0061*6F
$GPGSA,A,3,23,24,,,,,,,,,,,9.1,6.2,6.7*38
$GLGSA,A,3,65,75,,,,,,,,,,,9.1,6.2,6.7*22
$GAGSA,A,3,07,,,,,,,,,,,,9.1,6.2,6.7*29
$GBGSA,A,3,,,,,,,,,,,,,9.1,6.2,6.7*2D
$GPGSV,1,1,02,23,82,021,43,24,61,081,46,,,,,,,,*7E
$GLGSV,1,1,02,65,60,001,43,75,38,112,42,,,,,,,,*69
$GAGSV,1,1,01,07,77,352,40,,,,,,,,,,,,*5E
$GNVTG,130.54,T,,M,2.93,N,5.42,K,D*2E
$GNGST,163051.80,1.028,,,,0.351,0.513,2.006*60
$GNZDA,163051.80,10,10,2023,00,00*73
$GNRMC,163052.80,A,4220.2531354,N,07105.0405508,W,2.91,0.00,101023,,,D*5B
$GNGGA,163052.80,4220.2531354,N,07105.0405508,W,5,05,6.2,6.175,M,-28.725,M,0.8,0061*61
$GPGSA,A,3,23,24,,,,,,,,,,,9.1,6.2,6.7*38
$GLGSA,A,3,65,75,,,,,,,,,,,9.1,6.2,6.7*22
$GAGSA,A,3,07,,,,,,,,,,,,9.1,6.2,6.7*29
$GBGSA,A,3,,,,,,,,,,,,,9.1,6.2,6.7*2D
$GPGSV,1,1,02,23,82,021,39,24,61,081,42,,,,,,,,*77
$GLGSV,1,1,02,65,60,001,40,75,38,112,45,,,,,,,,*6D
$GAGSV,1,1,01,07,77,352,38,,,,,,,,,,,,*51
$GNVTG,0.00,T,,M,2.91,N,5.40,K,D*2D
$GNGST,163052.80,0.713,,,,0.435,0.613,2.404*6D
$GNZDA,163052.80,10,10,2023,00,00*70
$GNRMC,163053.80,A,4220.2523054,N,07105.0393289,W,4.57,159.55,101023,,,D*5D
$GNGGA,163053.80,4220.2523054,N,07105.0393289,W,5,05,6.2,11.132,M,-28.725,M,0.8,0061*53
$GPGSA,A,3,23,24,,,,,,,,,,,9.1,6.2,6.7*38
$GLGSA,A,3,65,75,,,,,,,,,,,9.1,6.2,6.7*22
$GAGSA,A,3,07,,,,,,,,,,,,9.1,6.2,6.7*29
$GBGSA,A,3,,,,,,,,,,,,,9.1,6.2,6.7*2D
$GPGSV,1,1,02,23,82,021,38,24,61,081,47,,,,,,,,*73
$GLGSV,1,1,02,65,60,001,45,75,38,112,38,,,,,,,,*62
$GAGSV,1,1,01,07,77,352,42,,,,,,,,,,,,*5C
$GNVTG,159.55,T,,M,4.57,N,8.46,K,D*27
$GNGST,163053.80,0.729,,,,0.555,1.204,4.760*66
$GNZDA,163053.80,10,10,2023,00,00*71
$GNRMC,163054.80,A,4220.2515367,N,07105.0380534,W,5.28,147.09,101023,,,D*50
$GNGGA,163054.80,4220.2515367,N,07105.0380534,W,5,05,6.2,15.337,M,-28.725,M,0.8,0061*52
$GPGSA,A,3,23,24,,,,,,,,,,,9.2,6.2,6.8*34
$GLGSA,A,3,65,75,,,,,,,,,,,9.2,6.2,6.8*2E
$GAGSA,A,3,07,,,,,,,,,,,,9.2,6.2,6.8*25
$GBGSA,A,3,,,,,,,,,,,,,9.2,6.2,6.8*21
$GPGSV,1,1,02,23,82,022,42,24,61,081,48,,,,,,,,*72
$GLGSV,1,1,02,65,60,001,43,75,38,112,47,,,,,,,,*6C
$GAGSV,1,1,01,07,77,352,44,,,,,,,,,,,,*5A
$GNVTG,147.09,T,,M,5.28,N,9.78,K,D*24
$GNGST,163054.80,0.131,,,,0.752,1.882,7.462*6D
$GNZDA,163054.80,10,10,2023,00,00*76
$GNRMC,163055.80,A,4220.2508260,N,07105.0362382,W,2.25,128.31,101023,,,D*54
$GNGGA,163055.80,4220.2508260,N,07105.0362382,W,5,06,5.0,21.115,M,-28.725,M,0.8,0061*59
$GPGSA,A,3,23,24,,,,,,,,,,,8.1,5.0,6.4*3B
$GLGSA,A,3,65,72,75,,,,,,,,,,8.1,5.0,6.4*24
$GAGSA,A,3,07,,,,,,,,,,,,8.1,5.0,6.4*2A
$GBGSA,A,3,,,,,,,,,,,,,8.1,5.0,6.4*2E
$GPGSV,1,1,02,23,82,022,48,24,61,081,48,,,,,,,,*78
$GLGSV,1,1,03,65,60,001,40,72,25,069,42,75,38,112,44,,,,*56
$GAGSV,1,1,01,07,77,352,45,,,,,,,,,,,,*5B
$GNVTG,128.31,T,,M,2.25,N,4.16,K,D*29
$GNGST,163055.80,2.730,,,,0.455,0.790,3.118*6C
$GNZDA,163055.80,10,10,2023,00,00*77
$GNRMC,163056.80,A,4220.2504108,N,07105.0361077,W,2.81,134.41,101023,,,D*58
$GNGGA,163056.80,4220.2504108,N,07105.0361077,W,5,08,4.4,18.240,M,-28.725,M,0.8,0061*53
$GPGSA,A,3,15,23,24,,,,,,,,,,7.5,4.4,6.1*34
$GLGSA,A,3,65,72,75,,,,,,,,,,7.5,4.4,6.1*2F
$GAGSA,A,3,07,08,,,,,,,,,,,7.5,4.4,6.1*29
$GBGSA,A,3,,,,,,,,,,,,,7.5,4.4,6.1*25
$GPGSV,1,1,03,15,35,067,40,23,82,022,46,24,61,081,47,,,,*4F
$GLGSV,1,1,03,65,60,001,44,72,25,069,38,75,38,112,46,,,,*5D
$GAGSV,1,1,02,07,77,352,44,08,31,062,37,,,,,,,,*63
$GNVTG,134.41,T,,M,2.81,N,5.20,K,D*29
$GNGST,163056.80,1.980,,,,0.410,0.647,2.491*66
$GNZDA,163056.80,10,10,2023,00,00*74
$GNRMC,163057.80,A,4220.2499194,N,07105.0362108,W,1.12,196.19,101023,,,D*5F
$GNGGA,163057.80,4220.2499194,N,07105.0362108,W,5,08,4.4,16.315,M,-28.725,M,0.8,0061*57
$GPGSA,A,3,15,23,24,,,,,,,,,,7.5,4.4,6.1*34
$GLGSA,A,3,65,72,75,,,,,,,,,,7.5,4.4,6.1*2F
$GAGSA,A,3,07,13,,,,,,,,,,,7.5,4.4,6.1*23
$GBGSA,A,3,,,,,,,,,,,,,7.5,4.4,6.1*25
$GPGSV,1,1,03,15,35,067,36,23,82,022,38,24,61,081,38,,,,*4F
$GLGSV,1,1,03,65,60,001,43,72,25,069,37,75,38,112,40,,,,*53
$GAGSV,1,1,02,07,77,352,39,13,22,178,35,,,,,,,,*69
$GNVTG,196.19,T,,M,1.12,N,2.08,K,D*28
$GNGST,163057.80,1.151,,,,0.389,0.581,2.194*6D
$GNZDA,163057.80,10,10,2023,00,00*75
$GNRMC,163058.80,A,4220.2496575,N,07105.0364375,W,1.54,229.87,101023,,,D*58
$GNGGA,163058.80,4220.2496575,N,07105.0364375,W,5,08,4.4,15.568,M,-28.725,M,0.8,0061*5D
$GPGSA,A,3,15,23,24,,,,,,,,,,7.5,4.4,6.1*34
$GLGSA,A,3,65,72,75,,,,,,,,,,7.5,4.4,6.1*2F
$GAGSA,A,3,07,08,,,,,,,,,,,7.5,4.4,6.1*29
$GBGSA,A,3,,,,,,,,,,,,,7.5,4.4,6.1*25
$GPGSV,1,1,03,15,35,067,40,23,82,022,48,24,61,081,44,,,,*42
$GLGSV,1,1,03,65,60,001,42,72,25,069,41,75,38,112,35,,,,*51
$GAGSV,1,1,02,07,77,352,45,08,31,062,39,,,,,,,,*6C
$GNVTG,229.87,T,,M,1.54,N,2.86,K,D*2C
$GNGST,163058.80,2.015,,,,0.374,0.536,1.984*64
$GNZDA,163058.80,10,10,2023,00,00*7A
$GNRMC,163059.80,A,4220.2496869,N,07105.0363670,W,3.20,116.67,101023,,,D*5E
$GNGGA,163059.80,4220.2496869,N,07105.0363670,W,5,10,4.4,14.238,M,-28.725,M,0.8,0061*51
$GPGSA,A,3,15,18,23,24,,,,,,,,,7.5,4.4,6.1*3D
$GLGSA,A,3,65,72,75,,,,,,,,,,7.5,4.4,6.1*2F
$GAGSA,A,3,07,08,13,,,,,,,,,,7.5,4.4,6.1*2B
$GBGSA,A,3,,,,,,,,,,,,,7.5,4.4,6.1*25
$GPGSV,1,1,04,15,35,067,38,18,41,194,41,23,82,022,49,24,61,081,43*79
$GLGSV,1,1,03,65,60,001,40,72,25,069,39,75,38,112,38,,,,*51
$GAGSV,1,1,03,07,77,352,47,08,31,062,42,13,22,178,41,,,,*5A
$GNVTG,116.67,T,,M,3.20,N,5.92,K,D*2E
$GNGST,163059.80,1.084,,,,0.364,0.504,1.832*62
$GNZDA,163059.80,10,10,2023,00,00*7B
$GNRMC,163100.80,A,4220.2492702,N,07105.0364849,W,2.41,174.69,101023,,,D*5A
$GNGGA,163100.80,4220.2492702,N,07105.0364849,W,5,08,2.0,11.958,M,-28.725,M,0.8,0061*5A
$GPGSA,A,3,15,18,23,24,,,,,,,,,4.3,2.0,3.8*36
$GLGSA,A,3,65,75,,,,,,,,,,,4.3,2.0,3.8*21
$GAGSA,A,3,07,13,,,,,,,,,,,4.3,2.0,3.8*28
$GBGSA,A,3,,,,,,,,,,,,,4.3,2.0,3.8*2E
$GPGSV,1,1,04,15,35,067,39,18,41,194,42,23,82,022,46,24,61,081,45*72
$GLGSV,1,1,02,65,60,001,40,75,38,112,40,,,,,,,,*68
$GAGSV,1,1,02,07,77,352,45,13,22,178,39,,,,,,,,*6E
$GNVTG,174.69,T,,M,2.41,N,4.47,K,D*2B
$GNGST,163100.80,1.761,,,,0.354,0.443,1.602*6F
$GNZDA,163100.80,10,10,2023,00,00*76
$GNRMC,163101.80,A,4220.2487015,N,07105.0368702,W,1.99,206.97,101023,,,D*53
$GNGGA,163101.80,4220.2487015,N,07105.0368702,W,5,11,1.9,10.738,M,-28.725,M,0.8,0061*59
$GPGSA,A,3,15,18,23,24,,,,,,,,,3.6,1.9,3.0*36
$GLGSA,A,3,65,72,75,,,,,,,,,,3.6,1.9,3.0*24
$GAGSA,A,3,07,08,13,26,,,,,,,,,3.6,1.9,3.0*24
$GBGSA,A,3,,,,,,,,,,,,,3.6,1.9,3.0*2E
$GPGSV,1,1,04,15,35,067,41,18,41,194,43,23,82,022,44,24,61,081,44*7F
$GLGSV,1,1,03,65,60,001,41,72,25,069,42,75,38,112,42,,,,*51
$GAGSV,1,1,04,07,77,352,41,08,31,062,38,13,22,178,39,26,56,238,35*61
$GNVTG,206.97,T,,M,1.99,N,3.68,K,D*20
$GNGST,163101.80,2.174,,,,0.343,0.398,1.430*6B
$GNZDA,163101.80,10,10,2023,00,00*77
$GNRMC,163102.80,A,4220.2481325,N,07105.0373521,W,2.92,232.47,101023,,,D*5D
$GNGGA,163102.80,4220.2481325,N,07105.0373521,W,5,12,1.5,10.440,M,-28.725,M,0.8,0061*56
$GPGSA,A,3,15,18,23,24,,,,,,,,,2.7,1.5,2.3*38
$GLGSA,A,3,65,72,75,88,,,,,,,,,2.7,1.5,2.3*2A
$GAGSA,A,3,07,08,13,26,,,,,,,,,2.7,1.5,2.3*2A
$GBGSA,A,3,,,,,,,,,,,,,2.7,1.5,2.3*20
$GPGSV,1,1,04,15,35,067,44,18,41,194,44,23,82,022,42,24,61,081,42*7D
$GLGSV,1,1,04,65,60,001,39,72,25,070,41,75,38,112,43,88,35,235,38*6A
$GAGSV,1,1,04,07,77,352,35,08,31,062,39,13,22,178,39,26,56,238,38*6E
$GNVTG,232.47,T,,M,2.92,N,5.41,K,D*2F
$GNGST,163102.80,2.468,,,,0.334,0.362,1.293*6A
$GNZDA,163102.80,10,10,2023,00,00*74
$GNRMC,163103.80,A,4220.2475918,N,07105.0379671,W,2.89,225.10,101023,,,D*51
$GNGGA,163103.80,4220.2475918,N,07105.0379671,W,5,09,1.8,10.564,M,-28.725,M,0.8,0061*54
$GPGSA,A,3,15,18,23,24,,,,,,,,,2.9,1.8,2.3*3B
$GLGSA,A,3,72,75,88,,,,,,,,,,2.9,1.8,2.3*2A
$GAGSA,A,3,08,26,,,,,,,,,,,2.9,1.8,2.3*2C
$GBGSA,A,3,,,,,,,,,,,,,2.9,1.8,2.3*23
$GPGSV,1,1,04,15,35,067,41,18,41,194,40,23,82,022,44,24,61,081,40*78
$GLGSV,1,1,03,72,25,070,41,75,38,112,44,88,35,235,35,,,,*59
$GAGSV,1,1,02,08,31,062,39,26,56,238,39,,,,,,,,*6A
$GNVTG,225.10,T,,M,2.89,N,5.35,K,D*22
$GNGST,163103.80,0.710,,,,0.326,0.333,1.188*6B
$GNZDA,163103.80,10,10,2023,00,00*75
$GNRMC,163104.80,A,4220.2471119,N,07105.0388396,W,2.93,224.96,101023,,,D*5D
$GNGGA,163104.80,4220.2471119,N,07105.0388396,W,5,08,5.3,9.776,M,-28.725,M,0.8,0061*6B
$GPGSA,A,3,15,18,23,24,,,,,,,,,7.4,5.3,5.2*3A
$GLGSA,A,3,72,,,,,,,,,,,,7.4,5.3,5.2*29
$GAGSA,A,3,08,13,26,,,,,,,,,,7.4,5.3,5.2*2F
$GBGSA,A,3,,,,,,,,,,,,,7.4,5.3,5.2*22
$GPGSV,1,1,04,15,35,067,38,18,41,194,39,23,82,022,41,24,61,081,41*7C
$GLGSV,1,1,01,72,25,070,36,,,,,,,,,,,,*54
$GAGSV,1,1,03,08,30,062,37,13,22,178,37,26,56,238,37,,,,*52
$GNVTG,224.96,T,,M,2.93,N,5.43,K,D*27
$GNGST,163104.80,1.028,,,,0.319,0.313,1.110*6E
$GNZDA,163104.80,10,10,2023,00,00*72
$GNRMC,163105.80,A,4220.2466396,N,07105.0396126,W,3.60,232.02,101023,,,D*5E
$GNGGA,163105.80,4220.2466396,N,07105.0396126,W,5,07,5.3,9.293,M,-28.725,M,0.8,0061*6E
$GPGSA,A,3,15,18,23,24,,,,,,,,,7.4,5.3,5.2*3A
$GLGSA,A,3,72,,,,,,,,,,,,7.4,5.3,5.2*29
$GAGSA,A,3,08,26,,,,,,,,,,,7.4,5.3,5.2*2D
$GBGSA,A,3,,,,,,,,,,,,,7.4,5.3,5.2*22
$GPGSV,1,1,04,15,35,067,40,18,41,194,37,23,82,022,43,24,61,081,45*7B
$GLGSV,1,1,01,72,25,070,36,,,,,,,,,,,,*54
$GAGSV,1,1,02,08,30,062,37,26,56,238,37,,,,,,,,*6B
$GNVTG,232.02,T,,M,3.60,N,6.67,K,D*25
$GNGST,163105.80,1.222,,,,0.313,0.301,1.058*63
$GNZDA,163105.80,10,10,2023,00,00*73
$GNRMC,163106.80,A,4220.2461518,N,07105.0404940,W,2.92,230.29,101023,,,D*59
$GNGGA,163106.80,4220.2461518,N,07105.0404940,W,5,08,2.5,8.934,M,-28.725,M,0.8,0061*67
$GPGSA,A,3,15,18,23,24,,,,,,,,,3.4,2.5,2.3*39
$GLGSA,A,3,72,88,,,,,,,,,,,3.4,2.5,2.3*2A
$GAGSA,A,3,08,26,,,,,,,,,,,3.4,2.5,2.3*2E
$GBGSA,A,3,,,,,,,,,,,,,3.4,2.5,2.3*21
$GPGSV,1,1,04,15,35,067,45,18,41,194,39,23,82,022,47,24,61,081,48*79
$GLGSV,1,1,02,72,25,070,41,88,35,235,39,,,,,,,,*6F
$GAGSV,1,1,02,08,30,062,40,26,56,238,42,,,,,,,,*69
$GNVTG,230.29,T,,M,2.92,N,5.41,K,D*25
$GNGST,163106.80,2.099,,,,0.309,0.289,1.012*65
$GNZDA,163106.80,10,10,2023,00,00*70
$GNRMC,163107.80,A,4220.2456884,N,07105.0413887,W,2.94,230.28,101023,,,D*5F
$GNGGA,163107.80,4220.2456884,N,07105.0413887,W,5,10,2.5,8.565,M,-28.725,M,0.8,0061*67
$GPGSA,A,3,15,18,23,24,,,,,,,,,3.4,2.5,2.3*39
$GLGSA,A,3,72,75,88,,,,,,,,,,3.4,2.5,2.3*28
$GAGSA,A,3,08,13,26,,,,,,,,,,3.4,2.5,2.3*2C
$GBGSA,A,3,,,,,,,,,,,,,3.4,2.5,2.3*21
$GPGSV,1,1,04,15,35,067,45,18,41,194,46,23,82,022,45,24,61,081,47*7C
$GLGSV,1,1,03,72,25,070,35,75,38,112,38,88,35,235,41,,,,*52
$GAGSV,1,1,03,08,30,062,37,13,22,178,37,26,56,238,42,,,,*50
$GNVTG,230.28,T,,M,2.94,N,5.45,K,D*26
$GNGST,163107.80,2.391,,,,0.303,0.279,0.974*62
$GNZDA,163107.80,10,10,2023,00,00*71
$GNRMC,163108.80,A,4220.2451795,N,07105.0421336,W,2.38,228.83,101023,,,D*56
$GNGGA,163108.80,4220.2451795,N,07105.0421336,W,5,10,1.8,8.522,M,-28.725,M,0.8,0061*6D
$GPGSA,A,3,15,18,23,24,,,,,,,,,2.9,1.8,2.3*3B
$GLGSA,A,3,72,75,88,,,,,,,,,,2.9,1.8,2.3*2A
$GAGSA,A,3,08,13,26,,,,,,,,,,2.9,1.8,2.3*2E
$GBGSA,A,3,,,,,,,,,,,,,2.9,1.8,2.3*23
$GPGSV,1,1,04,15,35,067,41,18,41,194,46,23,82,022,44,24,61,081,49*77
$GLGSV,1,1,03,72,25,070,35,75,38,112,46,88,35,235,38,,,,*55
$GAGSV,1,1,03,08,30,062,35,13,22,178,41,26,56,238,41,,,,*50
$GNVTG,228.83,T,,M,2.38,N,4.41,K,D*2D
$GNGST,163108.80,3.766,,,,0.298,0.268,0.933*60
$GNZDA,163108.80,10,10,2023,00,00*7E
$GNRMC,163109.80,A,4220.2447300,N,07105.0428868,W,2.78,243.59,101023,,,D*5F
$GNGGA,163109.80,4220.2447300,N,07105.0428868,W,5,07,3.1,8.609,M,-28.725,M,0.8,0061*6D
$GPGSA,A,3,18,23,24,,,,,,,,,,6.1,3.1,5.3*3F
$GLGSA,A,3,75,88,,,,,,,,,,,6.1,3.1,5.3*2F
$GAGSA,A,3,13,26,,,,,,,,,,,6.1,3.1,5.3*26
$GBGSA,A,3,,,,,,,,,,,,,6.1,3.1,5.3*23
$GPGSV,1,1,03,18,41,194,46,23,82,022,44,24,61,081,47,,,,*48
$GLGSV,1,1,02,75,38,112,41,88,35,235,40,,,,,,,,*6F
$GAGSV,1,1,02,13,22,178,39,26,56,238,41,,,,,,,,*67
$GNVTG,243.59,T,,M,2.78,N,5.15,K,D*23
$GNGST,163109.80,3.796,,,,0.295,0.259,0.902*63
$GNZDA,163109.80,10,10,2023,00,00*7F
$GNRMC,163110.80,A,4220.2443237,N,07105.0436535,W,2.91,232.73,101023,,,D*55
$GNGGA,163110.80,4220.2443237,N,07105.0436535,W,5,10,3.1,8.604,M,-28.725,M,0.8,0061*65
$GPGSA,A,3,15,18,23,24,,,,,,,,,6.1,3.1,5.3*3B
$GLGSA,A,3,72,75,88,,,,,,,,,,6.1,3.1,5.3*2A
$GAGSA,A,3,08,13,26,,,,,,,,,,6.1,3.1,5.3*2E
$GBGSA,A,3,,,,,,,,,,,,,6.1,3.1,5.3*23
$GPGSV,1,1,04,15,35,067,35,18,41,194,44,23,82,022,43,24,61,081,41*79
$GLGSV,1,1,03,72,25,070,35,75,38,112,42,88,35,235,37,,,,*5E
$GAGSV,1,1,03,08,30,062,37,13,22,178,40,26,56,238,39,,,,*5C
$GNVTG,232.73,T,,M,2.91,N,5.40,K,D*2A
$GNGST,163110.80,0.464,,,,0.302,0.253,0.894*6D
$GNZDA,163110.80,10,10,2023,00,00*77
$GNRMC,163111.80,A,4220.2438055,N,07105.0443595,W,3.24,224.59,101023,,,A*53
$GNGGA,163111.80,4220.2438055,N,07105.0443595,W,1,09,1.8,8.929,M,-28.725,M,0.8,*66
$GPGSA,A,3,15,18,23,24,,,,,,,,,3.0,1.8,2.4*34
$GLGSA,A,3,72,75,,,,,,,,,,,3.0,1.8,2.4*25
$GAGSA,A,3,08,13,26,,,,,,,,,,3.0,1.8,2.4*21
$GBGSA,A,3,,,,,,,,,,,,,3.0,1.8,2.4*2C
$GPGSV,1,1,04,15,35,067,38,18,41,194,45,23,82,022,41,24,61,081,41*77
$GLGSV,1,1,02,72,25,070,35,75,38,112,47,,,,,,,,*6C
$GAGSV,1,1,03,08,30,062,37,13,22,178,38,26,56,238,38,,,,*52
$GNVTG,224.59,T,,M,3.24,N,5.99,K,A*2B
$GNGST,163111.80,0.144,,,,0.305,0.250,0.882*68
$GNZDA,163111.80,10,10,2023,00,00*76
$GNRMC,163112.80,A,4220.2432203,N,07105.0450323,W,2.37,232.50,101023,,,D*5A
$GNGGA,163112.80,4220.2432203,N,07105.0450323,W,5,08,2.6,8.969,M,-28.725,M,0.8,0061*6C
$GPGSA,A,3,15,18,23,24,,,,,,,,,4.1,2.6,3.1*3B
$GLGSA,A,3,72,75,,,,,,,,,,,4.1,2.6,3.1*2A
$GAGSA,A,3,13,26,,,,,,,,,,,4.1,2.6,3.1*26
$GBGSA,A,3,,,,,,,,,,,,,4.1,2.6,3.1*23
$GPGSV,1,1,04,15,35,067,41,18,41,194,45,23,82,023,42,24,61,081,44*7E
$GLGSV,1,1,02,72,25,070,39,75,38,112,42,,,,,,,,*65
$GAGSV,1,1,02,13,22,178,36,26,56,238,39,,,,,,,,*67
$GNVTG,232.50,T,,M,2.37,N,4.39,K,D*28
$GNGST,163112.80,2.082,,,,0.327,0.254,0.895*60
$GNZDA,163112.80,10,10,2023,00,00*75
$GNRMC,163113.80,A,4220.2427840,N,07105.0457978,W,2.24,0.00,101023,,,D*55
$GNGGA,163113.80,4220.2427840,N,07105.0457978,W,5,07,5.4,8.800,M,-28.725,M,0.8,0061*63
$GPGSA,A,3,15,18,23,24,,,,,,,,,7.4,5.4,5.2*3D
$GLGSA,A,3,88,,,,,,,,,,,,7.4,5.4,5.2*2B
$GAGSA,A,3,13,26,,,,,,,,,,,7.4,5.4,5.2*20
$GBGSA,A,3,,,,,,,,,,,,,7.4,5.4,5.2*25
$GPGSV,1,1,04,15,35,067,40,18,41,194,41,23,82,023,40,24,61,081,42*7F
$GLGSV,1,1,01,88,35,235,37,,,,,,,,,,,,*52
$GAGSV,1,1,02,13,22,178,35,26,56,238,37,,,,,,,,*6A
$GNVTG,0.00,T,,M,2.24,N,4.15,K,D*22
$GNGST,163113.80,1.039,,,,0.316,0.247,0.862*6A
$GNZDA,163113.80,10,10,2023,00,00*74
$GNRMC,163114.80,A,4220.2422422,N,07105.0464538,W,2.61,232.36,101023,,,D*50
$GNGGA,163114.80,4220.2422422,N,07105.0464538,W,5,08,1.9,8.876,M,-28.725,M,0.8,0061*66
$GPGSA,A,3,15,18,23,24,,,,,,,,,3.5,1.9,2.9*3D
$GLGSA,A,3,75,88,,,,,,,,,,,3.5,1.9,2.9*29
$GAGSA,A,3,13,26,,,,,,,,,,,3.5,1.9,2.9*20
$GBGSA,A,3,,,,,,,,,,,,,3.5,1.9,2.9*25
$GPGSV,1,1,04,15,35,067,41,18,41,194,38,23,82,023,43,24,61,081,43*72
$GLGSV,1,1,02,75,38,112,44,88,35,235,35,,,,,,,,*68
$GAGSV,1,1,02,13,22,178,38,26,56,238,38,,,,,,,,*68
$GNVTG,232.36,T,,M,2.61,N,4.84,K,D*2D
$GNGST,163114.80,0.826,,,,0.310,0.241,0.837*6A
$GNZDA,163114.80,10,10,2023,00,00*73
$GNRMC,163115.80,A,4220.2417054,N,07105.0471046,W,2.69,227.87,101023,,,D*5C
$GNGGA,163115.80,4220.2417054,N,07105.0471046,W,5,10,1.8,8.856,M,-28.725,M,0.8,0061*66
$GPGSA,A,3,15,18,23,24,,,,,,,,,2.9,1.8,2.3*3B
$GLGSA,A,3,72,75,88,,,,,,,,,,2.9,1.8,2.3*2A
$GAGSA,A,3,08,13,26,,,,,,,,,,2.9,1.8,2.3*2E
$GBGSA,A,3,,,,,,,,,,,,,2.9,1.8,2.3*23
$GPGSV,1,1,04,15,35,067,38,18,41,194,48,23,82,023,47,24,61,081,43*7F
$GLGSV,1,1,03,72,25,070,38,75,38,112,45,88,35,235,41,,,,*55
$GAGSV,1,1,03,08,30,062,39,13,22,178,41,26,56,238,43,,,,*5E
$GNVTG,227.87,T,,M,2.69,N,4.98,K,D*26
$GNGST,163115.80,4.547,,,,0.304,0.236,0.814*61
$GNZDA,163115.80,10,10,2023,00,00*72
$GNRMC,163116.80,A,4220.2412730,N,07105.0479191,W,2.74,242.51,101023,,,D*58
$GNGGA,163116.80,4220.2412730,N,07105.0479191,W,5,10,1.8,8.764,M,-28.725,M,0.8,0061*68
$GPGSA,A,3,15,18,23,24,,,,,,,,,2.9,1.8,2.3*3B
$GLGSA,A,3,72,75,88,,,,,,,,,,2.9,1.8,2.3*2A
$GAGSA,A,3,08,13,26,,,,,,,,,,2.9,1.8,2.3*2E
$GBGSA,A,3,,,,,,,,,,,,,2.9,1.8,2.3*23
$GPGSV,1,1,04,15,35,067,45,18,41,194,48,23,82,023,49,24,61,081,46*7E
$GLGSV,1,1,03,72,25,070,39,75,38,112,46,88,35,235,39,,,,*58
$GAGSV,1,1,03,08,30,062,42,13,22,178,42,26,56,238,46,,,,*54
$GNVTG,242.51,T,,M,2.74,N,5.08,K,D*2A
$GNGST,163116.80,1.494,,,,0.299,0.230,0.790*68
$GNZDA,163116.80,10,10,2023,00,00*71
$GNRMC,163117.80,A,4220.2408418,N,07105.0487292,W,3.05,236.13,101023,,,D*58
$GNGGA,163117.80,4220.2408418,N,07105.0487292,W,5,09,1.8,8.713,M,-28.725,M,0.8,0061*62
$GPGSA,A,3,15,18,23,24,,,,,,,,,2.9,1.8,2.3*3B
$GLGSA,A,3,72,75,88,,,,,,,,,,2.9,1.8,2.3*2A
$GAGSA,A,3,08,26,,,,,,,,,,,2.9,1.8,2.3*2C
$GBGSA,A,3,,,,,,,,,,,,,2.9,1.8,2.3*23
$GPGSV,1,1,04,15,35,067,42,18,41,194,41,23,82,023,41,24,61,081,41*7F
$GLGSV,1,1,03,72,25,070,39,75,38,112,39,88,35,235,36,,,,*5F
$GAGSV,1,1,02,08,30,062,36,26,56,238,38,,,,,,,,*65
$GNVTG,236.13,T,,M,3.05,N,5.65,K,D*23
$GNGST,163117.80,2.364,,,,0.294,0.226,0.770*66
$GNZDA,163117.80,10,10,2023,00,00*70
$GNRMC,163118.80,A,4220.2403703,N,07105.0495643,W,2.84,237.76,101023,,,D*54
$GNGGA,163118.80,4220.2403703,N,07105.0495643,W,5,09,1.8,8.499,M,-28.725,M,0.8,0061*65
$GPGSA,A,3,15,18,23,24,,,,,,,,,2.9,1.8,2.3*3B
$GLGSA,A,3,72,75,88,,,,,,,,,,2.9,1.8,2.3*2A
$GAGSA,A,3,13,26,,,,,,,,,,,2.9,1.8,2.3*26
$GBGSA,A,3,,,,,,,,,,,,,2.9,1.8,2.3*23
$GPGSV,1,1,04,15,35,067,41,18,41,194,43,23,82,023,42,24,61,081,42*7E
$GLGSV,1,1,03,72,25,070,38,75,38,112,38,88,35,235,35,,,,*5C
$GAGSV,1,1,02,13,22,178,36,26,56,238,39,,,,,,,,*67
$GNVTG,237.76,T,,M,2.84,N,5.26,K,D*2E
$GNGST,163118.80,3.864,,,,0.289,0.221,0.751*6B
$GNZDA,163118.80,10,10,2023,00,00*7F
$GNRMC,163119.80,A,4220.2399196,N,07105.0503679,W,2.76,218.39,101023,,,D*57
$GNGGA,163119.80,4220.2399196,N,07105.0503679,W,5,05,5.4,8.414,M,-28.725,M,0.8,0061*6C
$GPGSA,A,3,15,18,23,24,,,,,,,,,7.5,5.4,5.2*3C
$GLGSA,A,3,75,,,,,,,,,,,,7.5,5.4,5.2*28
$GAGSA,A,3,,,,,,,,,,,,,7.5,5.4,5.2*27
$GBGSA,A,3,,,,,,,,,,,,,7.5,5.4,5.2*24
$GPGSV,1,1,04,15,35,067,41,18,41,194,40,23,82,023,45,24,61,081,44*7C
$GLGSV,1,1,01,75,38,111,40,,,,,,,,,,,,*58
$GNVTG,218.39,T,,M,2.76,N,5.11,K,D*21
$GNGST,163119.80,0.997,,,,0.286,0.220,0.736*6B
$GNZDA,163119.80,10,10,2023,00,00*7E
$GNRMC,163120.80,A,4220.2394108,N,07105.0511182,W,2.69,223.04,101023,,,A*5A
$GNGGA,163120.80,4220.2394108,N,07105.0511182,W,1,08,1.7,8.222,M,-28.725,M,0.8,*66
$GPGSA,A,3,15,18,23,24,,,,,,,,,2.9,1.7,2.3*34
$GLGSA,A,3,72,75,88,,,,,,,,,,2.9,1.7,2.3*25
$GAGSA,A,3,26,,,,,,,,,,,,2.9,1.7,2.3*2B
$GBGSA,A,3,,,,,,,,,,,,,2.9,1.7,2.3*2C
$GPGSV,1,1,04,15,34,067,40,18,41,194,46,23,82,023,37,24,61,081,45*7E
$GLGSV,1,1,03,72,25,070,38,75,38,111,43,88,35,235,38,,,,*5E
$GAGSV,1,1,01,26,56,238,37,,,,,,,,,,,,*53
$GNVTG,223.04,T,,M,2.69,N,4.99,K,A*2D
