$GNRMC,161335.80,A,4220.3269804,N,07105.0896511,W,0.25,216.32,101023,,,D*59
$GNGGA,161335.80,4220.3269804,N,07105.0896511,W,5,15,0.9,7.199,M,-28.723,M,0.8,0061*63
$GPGSA,A,3,10,15,18,23,24,,,,,,,,2.0,0.9,1.8*3B
$GLGSA,A,3,65,66,72,75,81,88,,,,,,,2.0,0.9,1.8*21
$GAGSA,A,3,07,08,13,26,,,,,,,,,2.0,0.9,1.8*28
$GBGSA,A,3,,,,,,,,,,,,,2.0,0.9,1.8*22
$GPGSV,2,1,05,10,40,306,42,15,41,062,41,18,49,198,44,23,76,345,43*78
$GPGSV,2,2,05,24,63,099,43,,,,,,,,,,,,*48
$GLGSV,2,1,06,65,60,342,44,66,23,282,42,72,31,061,43,75,31,120,45*6A
$GLGSV,2,2,06,81,32,315,45,88,43,244,46,,,,,,,,*6A
$GAGSV,1,1,04,07,78,322,42,08,36,058,37,13,29,178,39,26,60,249,41*60
$GNVTG,216.32,T,,M,0.25,N,0.47,K,D*26
$GNGST,161335.80,2.177,,,,0.094,0.079,0.217*68
$GNZDA,161335.80,10,10,2023,00,00*70
$GNRMC,161336.80,A,4220.3271240,N,07105.0897611,W,1.33,68.82,101023,,,D*6D
$GNGGA,161336.80,4220.3271240,N,07105.0897611,W,4,16,0.9,7.111,M,-28.723,M,0.8,0061*63
$GPGSA,A,3,10,15,18,23,24,32,,,,,,,1.8,0.9,1.6*3F
$GLGSA,A,3,65,66,72,75,81,88,,,,,,,1.8,0.9,1.6*24
$GAGSA,A,3,07,08,13,26,,,,,,,,,1.8,0.9,1.6*2D
$GBGSA,A,3,,,,,,,,,,,,,1.8,0.9,1.6*27
$GPGSV,2,1,06,10,40,306,43,15,41,062,43,18,49,198,45,23,76,345,44*7E
$GPGSV,2,2,06,24,63,099,45,32,17,253,35,,,,,,,,*78
$GLGSV,2,1,06,65,60,342,43,66,23,282,43,72,31,061,43,75,31,120,43*6A
$GLGSV,2,2,06,81,32,315,46,88,43,244,43,,,,,,,,*6C
$GAGSV,1,1,04,07,78,322,43,08,36,058,39,13,29,178,39,26,60,249,41*6F
$GNVTG,68.82,T,,M,1.33,N,2.45,K,D*10
$GNGST,161336.80,2.019,,,,0.007,0.006,0.017*62
$GNZDA,161336.80,10,10,2023,00,00*73
$GNRMC,161337.80,A,4220.3273594,N,07105.0891598,W,2.10,34.52,101023,,,D*62
$GNGGA,161337.80,4220.3273594,N,07105.0891598,W,5,15,0.9,7.157,M,-28.723,M,0.8,0061*6A
$GPGSA,A,3,10,15,18,23,24,,,,,,,,2.0,0.9,1.8*3B
$GLGSA,A,3,65,66,72,74,75,81,88,,,,,,2.0,0.9,1.8*22
$GAGSA,A,3,07,08,26,,,,,,,,,,2.0,0.9,1.8*2A
$GBGSA,A,3,,,,,,,,,,,,,2.0,0.9,1.8*22
$GPGSV,2,1,05,10,40,306,43,15,41,062,39,18,49,198,39,23,76,345,42*7D
$GPGSV,2,2,05,24,63,099,41,,,,,,,,,,,,*4A
$GLGSV,2,1,07,65,60,342,42,66,23,282,39,72,31,061,41,74,30,054,36*65
$GLGSV,2,2,07,75,31,120,40,81,32,315,39,88,43,244,44,,,,*55
$GAGSV,1,1,03,07,78,323,39,08,36,058,36,26,60,249,37,,,,*57
$GNVTG,34.52,T,,M,2.10,N,3.90,K,D*1F
$GNGST,161337.80,1.867,,,,0.092,0.078,0.213*62
$GNZDA,161337.80,10,10,2023,00,00*72
$GNRMC,161338.80,A,4220.3278601,N,07105.0888870,W,2.27,25.01,101023,,,D*68
$GNGGA,161338.80,4220.3278601,N,07105.0888870,W,4,14,0.9,7.092,M,-28.723,M,0.8,0061*6A
$GPGSA,A,3,10,15,18,23,24,32,,,,,,,1.8,0.9,1.6*3F
$GLGSA,A,3,65,66,72,75,81,88,,,,,,,1.8,0.9,1.6*24
$GAGSA,A,3,07,08,,,,,,,,,,,1.8,0.9,1.6*2B
$GBGSA,A,3,,,,,,,,,,,,,1.8,0.9,1.6*27
$GPGSV,2,1,06,10,40,306,39,15,41,062,38,18,49,198,36,23,76,345,39*71
$GPGSV,2,2,06,24,63,099,39,32,17,253,35,,,,,,,,*73
$GLGSV,2,1,06,65,60,342,41,66,23,282,39,72,31,061,39,75,31,120,38*64
$GLGSV,2,2,06,81,32,315,42,88,43,244,41,,,,,,,,*6A
$GAGSV,1,1,02,07,78,323,37,08,36,058,35,,,,,,,,*62
$GNVTG,25.01,T,,M,2.27,N,4.21,K,D*10
$GNGST,161338.80,1.867,,,,0.007,0.006,0.017*6E
$GNZDA,161338.80,10,10,2023,00,00*7D
$GNRMC,161339.80,A,4220.3283583,N,07105.0883989,W,2.53,34.49,101023,,,D*67
$GNGGA,161339.80,4220.3283583,N,07105.0883989,W,4,15,0.9,7.112,M,-28.723,M,0.8,0061*62
$GPGSA,A,3,10,15,18,23,24,32,,,,,,,1.8,0.9,1.6*3F
$GLGSA,A,3,65,66,72,75,81,88,,,,,,,1.8,0.9,1.6*24
$GAGSA,A,3,07,08,26,,,,,,,,,,1.8,0.9,1.6*2F
$GBGSA,A,3,,,,,,,,,,,,,1.8,0.9,1.6*27
$GPGSV,2,1,06,10,40,307,41,15,41,062,41,18,49,198,39,23,76,345,41*71
$GPGSV,2,2,06,24,63,099,41,32,17,253,37,,,,,,,,*7E
$GLGSV,2,1,06,65,60,342,41,66,23,282,39,72,31,061,41,75,31,120,37*64
$GLGSV,2,2,06,81,32,315,43,88,43,244,42,,,,,,,,*68
$GAGSV,1,1,03,07,78,323,39,08,36,058,36,26,60,249,38,,,,*58
$GNVTG,34.49,T,,M,2.53,N,4.69,K,D*13
$GNGST,161339.80,1.787,,,,0.007,0.006,0.017*6E
$GNZDA,161339.80,10,10,2023,00,00*7C
$GNRMC,161340.80,A,4220.3287732,N,07105.0875516,W,2.00,41.23,101023,,,D*6E
$GNGGA,161340.80,4220.3287732,N,07105.0875516,W,5,15,0.9,7.162,M,-28.723,M,0.8,0061*65
$GPGSA,A,3,10,15,18,23,24,,,,,,,,2.0,0.9,1.8*3B
$GLGSA,A,3,65,66,72,74,75,81,88,,,,,,2.0,0.9,1.8*22
$GAGSA,A,3,07,08,26,,,,,,,,,,2.0,0.9,1.8*2A
$GBGSA,A,3,,,,,,,,,,,,,2.0,0.9,1.8*22
$GPGSV,2,1,05,10,40,307,41,15,41,062,41,18,49,198,38,23,76,345,41*73
$GPGSV,2,2,05,24,63,099,41,,,,,,,,,,,,*4A
$GLGSV,2,1,07,65,60,342,41,66,23,282,37,72,31,061,40,74,30,054,35*6A
$GLGSV,2,2,07,75,31,120,38,81,32,315,42,88,43,244,42,,,,*50
$GAGSV,1,1,03,07,78,323,39,08,36,058,37,26,60,249,37,,,,*56
$GNVTG,41.23,T,,M,2.00,N,3.71,K,D*15
$GNGST,161340.80,1.831,,,,0.089,0.077,0.207*61
$GNZDA,161340.80,10,10,2023,00,00*72
$GNRMC,161341.80,A,4220.3292703,N,07105.0869608,W,2.56,48.51,101023,,,D*67
$GNGGA,161341.80,4220.3292703,N,07105.0869608,W,5,15,0.9,7.158,M,-28.723,M,0.8,0061*6A
$GPGSA,A,3,10,15,18,23,24,32,,,,,,,1.8,0.9,1.6*3F
$GLGSA,A,3,65,66,72,75,81,88,,,,,,,1.8,0.9,1.6*24
$GAGSA,A,3,07,08,26,,,,,,,,,,1.8,0.9,1.6*2F
$GBGSA,A,3,,,,,,,,,,,,,1.8,0.9,1.6*27
$GPGSV,2,1,06,10,40,307,42,15,41,062,41,18,49,198,38,23,76,345,41*73
$GPGSV,2,2,06,24,63,099,41,32,17,253,36,,,,,,,,*7F
$GLGSV,2,1,06,65,60,342,41,66,23,282,39,72,31,061,42,75,31,120,36*66
$GLGSV,2,2,06,81,32,315,43,88,43,244,41,,,,,,,,*6B
$GAGSV,1,1,03,07,78,323,39,08,36,058,37,26,60,249,38,,,,*59
$GNVTG,48.51,T,,M,2.56,N,4.74,K,D*18
$GNGST,161341.80,1.700,,,,0.088,0.076,0.205*6F
$GNZDA,161341.80,10,10,2023,00,00*73
$GNRMC,161342.80,A,4220.3297800,N,07105.0863996,W,2.62,46.78,101023,,,D*6D
$GNGGA,161342.80,4220.3297800,N,07105.0863996,W,5,14,0.9,7.153,M,-28.723,M,0.8,0061*68
$GPGSA,A,3,10,15,18,23,24,,,,,,,,2.0,0.9,1.8*3B
$GLGSA,A,3,65,66,72,75,81,88,,,,,,,2.0,0.9,1.8*21
$GAGSA,A,3,07,08,26,,,,,,,,,,2.0,0.9,1.8*2A
$GBGSA,A,3,,,,,,,,,,,,,2.0,0.9,1.8*22
$GPGSV,2,1,05,10,40,307,37,15,41,062,39,18,49,198,35,23,76,345,40*71
$GPGSV,2,2,05,24,63,099,39,,,,,,,,,,,,*45
$GLGSV,2,1,06,65,60,342,41,66,23,282,37,72,31,061,40,75,31,120,41*6A
$GLGSV,2,2,06,81,32,315,44,88,43,244,42,,,,,,,,*6F
$GAGSV,1,1,03,07,78,323,36,08,36,058,35,26,60,249,35,,,,*59
$GNVTG,46.78,T,,M,2.62,N,4.85,K,D*14
$GNGST,161342.80,1.694,,,,0.087,0.075,0.204*6D
$GNZDA,161342.80,10,10,2023,00,00*70
$GNRMC,161343.80,A,4220.3302264,N,07105.0858509,W,2.16,47.72,101023,,,D*63
$GNGGA,161343.80,4220.3302264,N,07105.0858509,W,5,16,0.9,7.153,M,-28.723,M,0.8,0061*6C
$GPGSA,A,3,10,15,18,23,24,32,,,,,,,1.8,0.9,1.6*3F
$GLGSA,A,3,65,66,72,75,81,88,,,,,,,1.8,0.9,1.6*24
$GAGSA,A,3,07,08,13,26,,,,,,,,,1.8,0.9,1.6*2D
$GBGSA,A,3,,,,,,,,,,,,,1.8,0.9,1.6*27
$GPGSV,2,1,06,10,40,307,43,15,41,062,42,18,49,198,43,23,76,345,43*7F
$GPGSV,2,2,06,24,63,099,41,32,17,253,39,,,,,,,,*70
$GLGSV,2,1,06,65,60,342,42,66,23,282,41,72,31,061,40,75,31,120,41*68
$GLGSV,2,2,06,81,32,315,46,88,43,244,46,,,,,,,,*69
$GAGSV,1,1,04,07,78,323,40,08,35,058,35,13,29,178,36,26,60,249,40*6C
$GNVTG,47.72,T,,M,2.16,N,4.00,K,D*11
$GNGST,161343.80,1.755,,,,0.086,0.075,0.202*67
$GNZDA,161343.80,10,10,2023,00,00*71
$GNRMC,161344.80,A,4220.3307409,N,07105.0852428,W,2.36,37.92,101023,,,D*6F
$GNGGA,161344.80,4220.3307409,N,07105.0852428,W,5,15,0.9,7.127,M,-28.723,M,0.8,0061*6B
$GPGSA,A,3,10,15,18,23,24,32,,,,,,,1.8,0.9,1.6*3F
$GLGSA,A,3,65,66,72,75,81,88,,,,,,,1.8,0.9,1.6*24
$GAGSA,A,3,07,08,26,,,,,,,,,,1.8,0.9,1.6*2F
$GBGSA,A,3,,,,,,,,,,,,,1.8,0.9,1.6*27
$GPGSV,2,1,06,10,40,307,41,15,41,062,42,18,49,198,40,23,76,345,43*7E
$GPGSV,2,2,06,24,63,099,45,32,17,253,36,,,,,,,,*7B
$GLGSV,2,1,06,65,60,342,42,66,23,282,40,72,31,061,42,75,31,120,43*69
$GLGSV,2,2,06,81,32,315,42,88,43,244,43,,,,,,,,*68
$GAGSV,1,1,03,07,78,323,41,08,35,058,38,26,60,249,40,,,,*55
$GNVTG,37.92,T,,M,2.36,N,4.38,K,D*11
$GNGST,161344.80,1.861,,,,0.085,0.074,0.200*68
$GNZDA,161344.80,10,10,2023,00,00*76
$GNRMC,161345.80,A,4220.3312234,N,07105.0847456,W,2.57,26.84,101023,,,D*6F
$GNGGA,161345.80,4220.3312234,N,07105.0847456,W,5,15,0.9,7.086,M,-28.723,M,0.8,0061*61
$GPGSA,A,3,10,15,18,23,24,32,,,,,,,1.8,0.9,1.6*3F
$GLGSA,A,3,65,66,72,75,81,88,,,,,,,1.8,0.9,1.6*24
$GAGSA,A,3,07,08,26,,,,,,,,,,1.8,0.9,1.6*2F
$GBGSA,A,3,,,,,,,,,,,,,1.8,0.9,1.6*27
$GPGSV,2,1,06,10,40,307,40,15,41,062,41,18,49,198,39,23,76,345,41*70
$GPGSV,2,2,06,24,63,099,43,32,17,253,36,,,,,,,,*7D
$GLGSV,2,1,06,65,60,342,42,66,23,282,40,72,31,062,39,75,31,120,41*64
$GLGSV,2,2,06,81,32,315,40,88,43,244,42,,,,,,,,*6B
$GAGSV,1,1,03,07,78,323,39,08,35,058,36,26,60,249,38,,,,*5B
$GNVTG,26.84,T,,M,2.57,N,4.76,K,D*1B
$GNGST,161345.80,1.947,,,,0.084,0.074,0.198*6F
$GNZDA,161345.80,10,10,2023,00,00*77
$GNRMC,161346.80,A,4220.3316784,N,07105.0841776,W,2.42,37.38,101023,,,D*62
$GNGGA,161346.80,4220.3316784,N,07105.0841776,W,5,14,0.9,7.067,M,-28.723,M,0.8,0061*61
$GPGSA,A,3,10,15,18,23,24,32,,,,,,,1.8,0.9,1.6*3F
$GLGSA,A,3,65,66,72,75,81,88,,,,,,,1.8,0.9,1.6*24
$GAGSA,A,3,07,26,,,,,,,,,,,1.8,0.9,1.6*27
$GBGSA,A,3,,,,,,,,,,,,,1.8,0.9,1.6*27
$GPGSV,2,1,06,10,40,307,41,15,41,062,41,18,49,198,39,23,76,345,41*71
$GPGSV,2,2,06,24,63,099,41,32,17,253,37,,,,,,,,*7E
$GLGSV,2,1,06,65,60,342,40,66,23,282,40,72,31,062,39,75,31,120,38*68
$GLGSV,2,2,06,81,32,315,43,88,43,244,41,,,,,,,,*6B
$GAGSV,1,1,02,07,78,323,39,26,60,249,38,,,,,,,,*6C
$GNVTG,37.38,T,,M,2.42,N,4.48,K,D*15
$GNGST,161346.80,2.018,,,,0.084,0.073,0.196*65
$GNZDA,161346.80,10,10,2023,00,00*74
$GNRMC,161347.80,A,4220.3321529,N,07105.0835518,W,2.09,44.87,101023,,,D*64
$GNGGA,161347.80,4220.3321529,N,07105.0835518,W,5,16,0.9,7.077,M,-28.723,M,0.8,0061*6B
$GPGSA,A,3,10,15,18,23,24,32,,,,,,,1.8,0.9,1.6*3F
$GLGSA,A,3,65,66,72,75,81,88,,,,,,,1.8,0.9,1.6*24
$GAGSA,A,3,07,08,13,26,,,,,,,,,1.8,0.9,1.6*2D
$GBGSA,A,3,,,,,,,,,,,,,1.8,0.9,1.6*27
$GPGSV,2,1,06,10,40,307,45,15,41,062,44,18,49,198,43,23,76,345,46*7A
$GPGSV,2,2,06,24,63,099,46,32,17,253,41,,,,,,,,*78
$GLGSV,2,1,06,65,60,342,44,66,23,282,43,72,31,062,44,75,31,120,43*69
$GLGSV,2,2,06,81,32,315,47,88,43,244,46,,,,,,,,*68
$GAGSV,1,1,04,07,78,323,43,08,35,058,40,13,29,178,35,26,60,249,42*6C
$GNVTG,44.87,T,,M,2.09,N,3.86,K,D*1F
$GNGST,161347.80,1.925,,,,0.083,0.073,0.194*65
$GNZDA,161347.80,10,10,2023,00,00*75
$GNRMC,161348.80,A,4220.3326172,N,07105.0829227,W,2.36,56.57,101023,,,D*62
$GNGGA,161348.80,4220.3326172,N,07105.0829227,W,5,17,0.9,7.078,M,-28.723,M,0.8,0061*61
$GPGSA,A,3,10,15,18,23,24,32,,,,,,,1.8,0.9,1.6*3F
$GLGSA,A,3,65,66,72,74,75,81,88,,,,,,1.8,0.9,1.6*27
$GAGSA,A,3,07,08,13,26,,,,,,,,,1.8,0.9,1.6*2D
$GBGSA,A,3,,,,,,,,,,,,,1.8,0.9,1.6*27
$GPGSV,2,1,06,10,40,307,45,15,41,062,44,18,49,198,42,23,76,345,44*79
$GPGSV,2,2,06,24,63,099,45,32,17,253,39,,,,,,,,*74
$GLGSV,2,1,07,65,60,342,44,66,23,282,43,72,31,062,43,74,30,054,35*6C
$GLGSV,2,2,07,75,31,120,41,81,32,315,45,88,43,244,44,,,,*5F
$GAGSV,1,1,04,07,78,323,43,08,35,058,40,13,29,178,35,26,60,249,41*6F
$GNVTG,56.57,T,,M,2.36,N,4.37,K,D*10
$GNGST,161348.80,1.799,,,,0.082,0.072,0.192*65
$GNZDA,161348.80,10,10,2023,00,00*7A
$GNRMC,161349.80,A,4220.3331260,N,07105.0823735,W,2.48,45.61,101023,,,D*67
$GNGGA,161349.80,4220.3331260,N,07105.0823735,W,5,16,0.9,7.049,M,-28.723,M,0.8,0061*69
$GPGSA,A,3,10,15,18,23,24,32,,,,,,,1.8,0.9,1.6*3F
$GLGSA,A,3,65,66,72,75,81,88,,,,,,,1.8,0.9,1.6*24
$GAGSA,A,3,07,08,13,26,,,,,,,,,1.8,0.9,1.6*2D
$GBGSA,A,3,,,,,,,,,,,,,1.8,0.9,1.6*27
$GPGSV,2,1,06,10,40,307,46,15,41,062,44,18,49,198,43,23,76,345,45*7A
$GPGSV,2,2,06,24,63,099,46,32,17,253,40,,,,,,,,*79
$GLGSV,2,1,06,65,60,342,43,66,23,282,43,72,31,062,42,75,31,120,41*6A
$GLGSV,2,2,06,81,32,314,45,88,43,244,45,,,,,,,,*68
$GAGSV,1,1,04,07,78,323,43,08,35,058,39,13,29,178,35,26,60,249,41*61
$GNVTG,45.61,T,,M,2.48,N,4.60,K,D*1C
$GNGST,161349.80,1.941,,,,0.081,0.072,0.191*6F
$GNZDA,161349.80,10,10,2023,00,00*7B
$GNRMC,161350.80,A,4220.3336379,N,07105.0817683,W,2.33,45.77,101023,,,D*61
$GNGGA,161350.80,4220.3336379,N,07105.0817683,W,5,16,0.9,7.055,M,-28.723,M,0.8,0061*69
$GPGSA,A,3,10,15,18,23,24,32,,,,,,,1.8,0.9,1.6*3F
$GLGSA,A,3,65,66,72,75,81,88,,,,,,,1.8,0.9,1.6*24
$GAGSA,A,3,07,08,13,26,,,,,,,,,1.8,0.9,1.6*2D
$GBGSA,A,3,,,,,,,,,,,,,1.8,0.9,1.6*27
$GPGSV,2,1,06,10,40,307,43,15,41,062,44,18,49,198,42,23,76,345,45*7E
$GPGSV,2,2,06,24,63,099,46,32,17,253,39,,,,,,,,*77
$GLGSV,2,1,06,65,60,342,44,66,23,282,42,72,31,062,41,75,31,120,42*6C
$GLGSV,2,2,06,81,32,314,45,88,43,244,43,,,,,,,,*6E
$GAGSV,1,1,04,07,78,323,43,08,35,058,39,13,29,178,35,26,60,249,41*61
$GNVTG,45.77,T,,M,2.33,N,4.31,K,D*13
$GNGST,161350.80,1.918,,,,0.080,0.071,0.189*60
$GNZDA,161350.80,10,10,2023,00,00*73
$GNRMC,161351.80,A,4220.3341093,N,07105.0811609,W,1.67,48.22,101023,,,D*6C
$GNGGA,161351.80,4220.3341093,N,07105.0811609,W,5,16,0.9,7.060,M,-28.723,M,0.8,0061*6D
$GPGSA,A,3,10,15,18,23,24,32,,,,,,,1.8,0.9,1.6*3F
$GLGSA,A,3,65,66,72,75,81,88,,,,,,,1.8,0.9,1.6*24
$GAGSA,A,3,07,08,13,26,,,,,,,,,1.8,0.9,1.6*2D
$GBGSA,A,3,,,,,,,,,,,,,1.8,0.9,1.6*27
$GPGSV,2,1,06,10,40,307,43,15,41,062,43,18,49,198,43,23,76,345,42*7F
$GPGSV,2,2,06,24,63,099,42,32,17,253,39,,,,,,,,*73
$GLGSV,2,1,06,65,60,342,43,66,23,282,42,72,31,062,40,75,31,120,43*6B
$GLGSV,2,2,06,81,32,314,44,88,43,244,45,,,,,,,,*69
$GAGSV,1,1,04,07,78,323,41,08,35,058,36,13,29,178,36,26,60,249,40*6E
$GNVTG,48.22,T,,M,1.67,N,3.10,K,D*18
$GNGST,161351.80,1.958,,,,0.079,0.071,0.187*6D
$GNZDA,161351.80,10,10,2023,00,00*72
$GNRMC,161352.80,A,4220.3346026,N,07105.0805104,W,3.38,38.86,101023,,,D*68
$GNGGA,161352.80,4220.3346026,N,07105.0805104,W,5,16,0.9,7.027,M,-28.723,M,0.8,0061*6B
$GPGSA,A,3,10,15,18,23,24,32,,,,,,,1.8,0.9,1.6*3F
$GLGSA,A,3,65,66,72,75,81,88,,,,,,,1.8,0.9,1.6*24
$GAGSA,A,3,07,08,13,26,,,,,,,,,1.8,0.9,1.6*2D
$GBGSA,A,3,,,,,,,,,,,,,1.8,0.9,1.6*27
$GPGSV,2,1,06,10,40,307,43,15,41,062,42,18,49,198,42,23,76,345,43*7E
$GPGSV,2,2,06,24,63,099,45,32,17,253,36,,,,,,,,*7B
$GLGSV,2,1,06,65,60,342,43,66,23,282,42,72,31,062,43,75,31,120,42*69
$GLGSV,2,2,06,81,32,314,43,88,43,244,43,,,,,,,,*68
$GAGSV,1,1,04,07,78,323,41,08,35,058,38,13,29,178,36,26,60,249,41*61
$GNVTG,38.86,T,,M,3.38,N,6.25,K,D*1A
$GNGST,161352.80,1.956,,,,0.079,0.070,0.185*63
$GNZDA,161352.80,10,10,2023,00,00*71
$GNRMC,161353.80,A,4220.3350785,N,07105.0799332,W,2.18,32.35,101023,,,D*6C
$GNGGA,161353.80,4220.3350785,N,07105.0799332,W,5,16,0.9,7.028,M,-28.723,M,0.8,0061*61
$GPGSA,A,3,10,15,18,23,24,32,,,,,,,1.8,0.9,1.6*3F
$GLGSA,A,3,65,66,72,75,81,88,,,,,,,1.8,0.9,1.6*24
$GAGSA,A,3,07,08,13,26,,,,,,,,,1.8,0.9,1.6*2D
$GBGSA,A,3,,,,,,,,,,,,,1.8,0.9,1.6*27
$GPGSV,2,1,06,10,40,307,42,15,41,062,42,18,49,198,42,23,76,345,43*7F
$GPGSV,2,2,06,24,63,099,45,32,17,253,40,,,,,,,,*7A
$GLGSV,2,1,06,65,60,342,41,66,23,282,41,72,31,062,40,75,31,120,39*67
$GLGSV,2,2,06,81,32,314,42,88,43,244,43,,,,,,,,*69
$GAGSV,1,1,04,07,78,323,41,08,35,058,38,13,29,178,35,26,60,249,39*6D
$GNVTG,32.35,T,,M,2.18,N,4.03,K,D*1D
$GNGST,161353.80,1.922,,,,0.078,0.070,0.184*61
$GNZDA,161353.80,10,10,2023,00,00*70
$GNRMC,161354.80,A,4220.3355491,N,07105.0793054,W,2.35,32.26,101023,,,D*6C
$GNGGA,161354.80,4220.3355491,N,07105.0793054,W,5,16,0.9,7.065,M,-28.723,M,0.8,0061*65
$GPGSA,A,3,10,15,18,23,24,32,,,,,,,1.8,0.9,1.6*3F
$GLGSA,A,3,65,66,72,75,81,88,,,,,,,1.8,0.9,1.6*24
$GAGSA,A,3,07,08,13,26,,,,,,,,,1.8,0.9,1.6*2D
$GBGSA,A,3,,,,,,,,,,,,,1.8,0.9,1.6*27
$GPGSV,2,1,06,10,40,307,42,15,41,062,43,18,49,198,42,23,76,345,43*7E
$GPGSV,2,2,06,24,63,099,43,32,17,253,38,,,,,,,,*73
$GLGSV,2,1,06,65,60,342,43,66,23,282,43,72,31,062,41,75,31,120,42*6A
$GLGSV,2,2,06,81,32,314,45,88,43,244,43,,,,,,,,*6E
$GAGSV,1,1,04,07,78,323,41,08,35,058,38,13,29,178,37,26,60,249,40*61
$GNVTG,32.26,T,,M,2.35,N,4.36,K,D*16
$GNGST,161354.80,1.843,,,,0.077,0.069,0.182*61
$GNZDA,161354.80,10,10,2023,00,00*77
$GNRMC,161355.80,A,4220.3360453,N,07105.0787523,W,2.12,42.39,101023,,,D*69
$GNGGA,161355.80,4220.3360453,N,07105.0787523,W,5,14,0.9,7.065,M,-28.723,M,0.8,0061*6E
$GPGSA,A,3,10,15,18,23,24,,,,,,,,2.0,0.9,1.8*3B
$GLGSA,A,3,65,66,72,75,81,88,,,,,,,2.0,0.9,1.8*21
$GAGSA,A,3,07,08,26,,,,,,,,,,2.0,0.9,1.8*2A
$GBGSA,A,3,,,,,,,,,,,,,2.0,0.9,1.8*22
$GPGSV,2,1,05,10,40,307,40,15,41,062,42,18,49,198,40,23,76,345,42*7D
$GPGSV,2,2,05,24,63,099,40,,,,,,,,,,,,*4B
$GLGSV,2,1,06,65,60,342,42,66,23,282,39,72,31,062,41,75,31,120,38*6B
$GLGSV,2,2,06,81,32,314,42,88,42,244,39,,,,,,,,*65
$GAGSV,1,1,03,07,78,323,39,08,35,058,35,26,60,249,35,,,,*55
$GNVTG,42.39,T,,M,2.12,N,3.92,K,D*13
$GNGST,161355.80,1.890,,,,0.076,0.069,0.180*6D
$GNZDA,161355.80,10,10,2023,00,00*76
$GNRMC,161356.80,A,4220.3365520,N,07105.0781060,W,2.71,55.05,101023,,,D*62
$GNGGA,161356.80,4220.3365520,N,07105.0781060,W,5,15,0.9,7.034,M,-28.723,M,0.8,0061*6C
$GPGSA,A,3,10,15,18,23,24,32,,,,,,,1.8,0.9,1.6*3F
$GLGSA,A,3,65,66,72,75,81,88,,,,,,,1.8,0.9,1.6*24
$GAGSA,A,3,07,08,26,,,,,,,,,,1.8,0.9,1.6*2F
$GBGSA,A,3,,,,,,,,,,,,,1.8,0.9,1.6*27
$GPGSV,2,1,06,10,40,307,38,15,41,062,40,18,49,198,39,23,76,345,41*7E
$GPGSV,2,2,06,24,63,099,41,32,17,253,35,,,,,,,,*7C
$GLGSV,2,1,06,65,60,342,42,66,23,282,40,72,31,062,41,75,31,120,41*6B
$GLGSV,2,2,06,81,32,314,42,88,42,244,39,,,,,,,,*65
$GAGSV,1,1,03,07,78,323,39,08,35,058,35,26,60,249,37,,,,*57
$GNVTG,55.05,T,,M,2.71,N,5.03,K,D*11
$GNGST,161356.80,1.723,,,,0.076,0.069,0.178*6E
$GNZDA,161356.80,10,10,2023,00,00*75
$GNRMC,161357.80,A,4220.3370813,N,07105.0774997,W,2.55,43.37,101023,,,D*61
$GNGGA,161357.80,4220.3370813,N,07105.0774997,W,5,15,0.9,7.029,M,-28.723,M,0.8,0061*63
$GPGSA,A,3,10,15,18,23,24,,,,,,,,2.0,0.9,1.8*3B
$GLGSA,A,3,65,66,72,75,81,88,,,,,,,2.0,0.9,1.8*21
$GAGSA,A,3,07,08,13,26,,,,,,,,,2.0,0.9,1.8*28
$GBGSA,A,3,,,,,,,,,,,,,2.0,0.9,1.8*22
$GPGSV,2,1,05,10,40,307,40,15,41,062,42,18,49,198,39,23,76,345,41*70
$GPGSV,2,2,05,24,63,099,41,,,,,,,,,,,,*4A
$GLGSV,2,1,06,65,60,342,41,66,23,282,38,72,31,062,42,75,31,120,40*65
$GLGSV,2,2,06,81,32,314,41,88,42,244,39,,,,,,,,*66
$GAGSV,1,1,04,07,78,323,39,08,35,058,36,13,29,178,35,26,60,249,37*62
$GNVTG,43.37,T,,M,2.55,N,4.72,K,D*16
$GNGST,161357.80,1.801,,,,0.075,0.068,0.177*6D
$GNZDA,161357.80,10,10,2023,00,00*74
$GNRMC,161358.80,A,4220.3376102,N,07105.0769481,W,2.45,42.18,101023,,,D*6A
$GNGGA,161358.80,4220.3376102,N,07105.0769481,W,5,15,0.9,7.065,M,-28.723,M,0.8,0061*6D
$GPGSA,A,3,10,15,18,23,24,,,,,,,,2.0,0.9,1.8*3B
$GLGSA,A,3,65,66,72,75,81,88,,,,,,,2.0,0.9,1.8*21
$GAGSA,A,3,07,08,13,26,,,,,,,,,2.0,0.9,1.8*28
$GBGSA,A,3,,,,,,,,,,,,,2.0,0.9,1.8*22
$GPGSV,2,1,05,10,40,307,40,15,41,062,42,18,49,198,40,23,76,345,43*7C
$GPGSV,2,2,05,24,63,099,41,,,,,,,,,,,,*4A
$GLGSV,2,1,06,65,60,342,41,66,23,282,39,72,31,062,42,75,31,120,40*64
$GLGSV,2,2,06,81,32,314,42,88,42,244,38,,,,,,,,*64
$GAGSV,1,1,04,07,78,323,39,08,35,058,38,13,29,178,35,26,60,249,37*6C
$GNVTG,42.18,T,,M,2.45,N,4.53,K,D*18
$GNGST,161358.80,1.857,,,,0.074,0.068,0.176*61
$GNZDA,161358.80,10,10,2023,00,00*7B
$GNRMC,161359.80,A,4220.3381307,N,07105.0763568,W,2.43,33.93,101023,,,D*6B
$GNGGA,161359.80,4220.3381307,N,07105.0763568,W,5,15,0.9,7.031,M,-28.723,M,0.8,0061*6E
$GPGSA,A,3,10,15,18,23,24,32,,,,,,,1.8,0.9,1.6*3F
$GLGSA,A,3,65,66,72,75,81,88,,,,,,,1.8,0.9,1.6*24
$GAGSA,A,3,07,08,26,,,,,,,,,,1.8,0.9,1.6*2F
$GBGSA,A,3,,,,,,,,,,,,,1.8,0.9,1.6*27
$GPGSV,2,1,06,10,40,307,42,15,41,062,41,18,49,198,40,23,76,345,43*7E
$GPGSV,2,2,06,24,63,099,41,32,17,253,37,,,,,,,,*7E
$GLGSV,2,1,06,65,60,342,42,66,23,282,40,72,31,062,41,75,31,120,38*65
$GLGSV,2,2,06,81,32,314,43,88,42,244,43,,,,,,,,*69
$GAGSV,1,1,03,07,78,323,41,08,35,058,36,26,60,249,38,,,,*54
$GNVTG,33.93,T,,M,2.43,N,4.49,K,D*10
$GNGST,161359.80,1.811,,,,0.074,0.067,0.174*6F
$GNZDA,161359.80,10,10,2023,00,00*7A
$GNRMC,161400.80,A,4220.3386507,N,07105.0756934,W,2.57,32.47,101023,,,D*6F
$GNGGA,161400.80,4220.3386507,N,07105.0756934,W,5,13,0.9,6.990,M,-28.723,M,0.8,0061*62
$GPGSA,A,3,10,15,18,23,24,32,,,,,,,1.8,0.9,1.6*3F
$GLGSA,A,3,65,66,72,75,81,88,,,,,,,1.8,0.9,1.6*24
$GAGSA,A,3,07,,,,,,,,,,,,1.8,0.9,1.6*23
$GBGSA,A,3,,,,,,,,,,,,,1.8,0.9,1.6*27
$GPGSV,2,1,06,10,40,307,40,15,41,062,39,18,49,198,37,23,76,345,40*70
$GPGSV,2,2,06,24,63,099,42,32,17,253,35,,,,,,,,*7F
$GLGSV,2,1,06,65,60,342,41,66,23,282,38,72,31,062,38,75,31,120,39*66
$GLGSV,2,2,06,81,32,314,41,88,42,244,42,,,,,,,,*6A
$GAGSV,1,1,01,07,78,323,36,,,,,,,,,,,,*56
$GNVTG,32.47,T,,M,2.57,N,4.77,K,D*10
$GNGST,161400.80,1.901,,,,0.073,0.067,0.172*65
$GNZDA,161400.80,10,10,2023,00,00*71
$GNRMC,161401.80,A,4220.3391365,N,07105.0750602,W,2.61,34.86,101023,,,D*68
$GNGGA,161401.80,4220.3391365,N,07105.0750602,W,5,15,0.9,6.974,M,-28.722,M,0.8,0061*66
$GPGSA,A,3,10,15,18,23,24,32,,,,,,,1.8,0.9,1.6*3F
$GLGSA,A,3,65,66,72,75,81,88,,,,,,,1.8,0.9,1.6*24
$GAGSA,A,3,07,08,26,,,,,,,,,,1.8,0.9,1.6*2F
$GBGSA,A,3,,,,,,,,,,,,,1.8,0.9,1.6*27
$GPGSV,2,1,06,10,40,307,40,15,41,062,42,18,49,198,39,23,76,345,42*70
$GPGSV,2,2,06,24,63,099,43,32,17,253,35,,,,,,,,*7E
$GLGSV,2,1,06,65,60,342,42,66,23,282,39,72,31,062,41,75,31,120,39*6A
$GLGSV,2,2,06,81,32,314,40,88,42,244,41,,,,,,,,*68
$GAGSV,1,1,03,07,78,323,40,08,35,058,35,26,60,249,36,,,,*58
$GNVTG,34.86,T,,M,2.61,N,4.84,K,D*12
$GNGST,161401.80,2.084,,,,0.072,0.066,0.170*61
$GNZDA,161401.80,10,10,2023,00,00*70
$GNRMC,161402.80,A,4220.3396701,N,07105.0744044,W,2.37,37.09,101023,,,D*6C
$GNGGA,161402.80,4220.3396701,N,07105.0744044,W,5,15,0.9,6.989,M,-28.722,M,0.8,0061*67
$GPGSA,A,3,10,15,18,23,24,32,,,,,,,1.8,0.9,1.6*3F
$GLGSA,A,3,65,66,72,75,81,88,,,,,,,1.8,0.9,1.6*24
$GAGSA,A,3,07,08,26,,,,,,,,,,1.8,0.9,1.6*2F
$GBGSA,A,3,,,,,,,,,,,,,1.8,0.9,1.6*27
$GPGSV,2,1,06,10,40,307,39,15,41,062,42,18,49,198,37,23,76,345,41*73
$GPGSV,2,2,06,24,63,099,42,32,17,253,37,,,,,,,,*7D
$GLGSV,2,1,06,65,60,342,43,66,23,282,40,72,31,062,39,75,31,120,38*6B
$GLGSV,2,2,06,81,32,314,41,88,42,244,40,,,,,,,,*68
$GAGSV,1,1,03,07,78,323,39,08,35,058,37,26,60,249,36,,,,*54
$GNVTG,37.09,T,,M,2.37,N,4.39,K,D*13
$GNGST,161402.80,1.892,,,,0.072,0.066,0.169*66
$GNZDA,161402.80,10,10,2023,00,00*73
$GNRMC,161403.80,A,4220.3401599,N,07105.0737359,W,2.13,50.48,101023,,,D*6E
$GNGGA,161403.80,4220.3401599,N,07105.0737359,W,5,15,0.9,6.937,M,-28.722,M,0.8,0061*62
$GPGSA,A,3,10,15,18,23,24,32,,,,,,,1.8,0.9,1.6*3F
$GLGSA,A,3,65,66,72,74,75,81,88,,,,,,1.8,0.9,1.6*27
$GAGSA,A,3,07,08,,,,,,,,,,,1.8,0.9,1.6*2B
$GBGSA,A,3,,,,,,,,,,,,,1.8,0.9,1.6*27
$GPGSV,2,1,06,10,40,307,39,15,41,062,43,18,49,198,36,23,76,345,42*70
$GPGSV,2,2,06,24,63,099,42,32,17,253,35,,,,,,,,*7F
$GLGSV,2,1,07,65,60,342,43,66,23,282,38,72,31,062,42,74,30,054,35*66
$GLGSV,2,2,07,75,31,120,41,81,32,314,41,88,42,244,39,,,,*51
$GAGSV,1,1,02,07,78,323,39,08,35,058,36,,,,,,,,*6C
$GNVTG,50.48,T,,M,2.13,N,3.94,K,D*11
$GNGST,161403.80,2.017,,,,0.071,0.066,0.167*6C
$GNZDA,161403.80,10,10,2023,00,00*72
$GNRMC,161404.80,A,4220.3406488,N,07105.0731218,W,2.82,47.56,101023,,,D*6C
$GNGGA,161404.80,4220.3406488,N,07105.0731218,W,5,16,0.9,6.926,M,-28.722,M,0.8,0061*62
$GPGSA,A,3,10,15,18,23,24,32,,,,,,,1.8,0.9,1.6*3F
$GLGSA,A,3,65,66,72,75,81,88,,,,,,,1.8,0.9,1.6*24
$GAGSA,A,3,07,08,13,26,,,,,,,,,1.8,0.9,1.6*2D
$GBGSA,A,3,,,,,,,,,,,,,1.8,0.9,1.6*27
$GPGSV,2,1,06,10,40,307,43,15,41,062,40,18,49,198,42,23,76,345,44*7B
$GPGSV,2,2,06,24,63,099,43,32,17,253,38,,,,,,,,*73
$GLGSV,2,1,06,65,60,342,43,66,23,282,40,72,31,062,41,75,31,120,42*69
$GLGSV,2,2,06,81,32,314,41,88,42,244,45,,,,,,,,*6D
$GAGSV,1,1,04,07,78,323,41,08,35,058,36,13,29,178,36,26,60,249,40*6E
$GNVTG,47.56,T,,M,2.82,N,5.22,K,D*1B
$GNGST,161404.80,1.836,,,,0.070,0.065,0.165*63
$GNZDA,161404.80,10,10,2023,00,00*75
$GNRMC,161405.80,A,4220.3411490,N,07105.0725142,W,2.37,44.76,101023,,,D*64
$GNGGA,161405.80,4220.3411490,N,07105.0725142,W,5,15,0.9,6.904,M,-28.722,M,0.8,0061*66
$GPGSA,A,3,10,15,18,23,24,32,,,,,,,1.8,0.9,1.6*3F
$GLGSA,A,3,65,66,72,75,81,88,,,,,,,1.8,0.9,1.6*24
$GAGSA,A,3,07,13,26,,,,,,,,,,1.8,0.9,1.6*25
$GBGSA,A,3,,,,,,,,,,,,,1.8,0.9,1.6*27
$GPGSV,2,1,06,10,40,307,37,15,41,062,39,18,49,198,42,23,76,345,41*73
$GPGSV,2,2,06,24,63,099,39,32,17,253,39,,,,,,,,*7F
$GLGSV,2,1,06,65,60,342,40,66,23,282,38,72,31,062,39,75,31,120,40*68
$GLGSV,2,2,06,81,32,314,36,88,42,244,44,,,,,,,,*6C
$GAGSV,1,1,03,07,78,323,39,13,29,178,36,26,60,249,40,,,,*50
$GNVTG,44.76,T,,M,2.37,N,4.39,K,D*1F
$GNGST,161405.80,1.753,,,,0.070,0.065,0.164*6F
$GNZDA,161405.80,10,10,2023,00,00*74
$GNRMC,161406.80,A,4220.3416497,N,07105.0718688,W,2.78,43.48,101023,,,D*69
$GNGGA,161406.80,4220.3416497,N,07105.0718688,W,5,15,0.9,6.917,M,-28.722,M,0.8,0061*68
$GPGSA,A,3,10,15,18,23,24,32,,,,,,,1.8,0.9,1.6*3F
$GLGSA,A,3,65,66,72,75,81,88,,,,,,,1.8,0.9,1.6*24
$GAGSA,A,3,07,13,26,,,,,,,,,,1.8,0.9,1.6*25
$GBGSA,A,3,,,,,,,,,,,,,1.8,0.9,1.6*27
$GPGSV,2,1,06,10,40,307,43,15,41,062,40,18,49,198,46,23,76,345,42*79
$GPGSV,2,2,06,24,63,099,41,32,17,253,41,,,,,,,,*7F
$GLGSV,2,1,06,65,60,342,43,66,23,282,43,72,31,062,36,75,31,120,40*68
$GLGSV,2,2,06,81,32,314,43,88,42,244,47,,,,,,,,*6D
$GAGSV,1,1,03,07,78,323,40,13,29,178,40,26,60,249,43,,,,*5C
$GNVTG,43.48,T,,M,2.78,N,5.15,K,D*11
$GNGST,161406.80,1.904,,,,0.069,0.064,0.162*6F
$GNZDA,161406.80,10,10,2023,00,00*77
$GNRMC,161407.80,A,4220.3421481,N,07105.0711857,W,1.97,42.57,101023,,,D*63
$GNGGA,161407.80,4220.3421481,N,07105.0711857,W,5,16,0.9,6.939,M,-28.722,M,0.8,0061*60
$GPGSA,A,3,10,15,18,23,24,32,,,,,,,1.8,0.9,1.6*3F
$GLGSA,A,3,65,66,72,75,81,88,,,,,,,1.8,0.9,1.6*24
$GAGSA,A,3,07,08,13,26,,,,,,,,,1.8,0.9,1.6*2D
$GBGSA,A,3,,,,,,,,,,,,,1.8,0.9,1.6*27
$GPGSV,2,1,06,10,40,307,41,15,41,062,41,18,49,198,45,23,76,345,44*7F
$GPGSV,2,2,06,24,63,099,44,32,17,253,39,,,,,,,,*75
$GLGSV,2,1,06,65,60,342,41,66,23,282,41,72,31,062,39,75,31,120,42*65
$GLGSV,2,2,06,81,32,314,41,88,42,244,45,,,,,,,,*6D
$GAGSV,1,1,04,07,78,323,41,08,35,058,35,13,29,178,39,26,60,249,42*60
$GNVTG,42.57,T,,M,1.97,N,3.66,K,D*1E
$GNGST,161407.80,2.044,,,,0.068,0.064,0.161*62
$GNZDA,161407.80,10,10,2023,00,00*76
$GNRMC,161408.80,A,4220.3426474,N,07105.0705418,W,2.57,34.24,101023,,,D*69
$GNGGA,161408.80,4220.3426474,N,07105.0705418,W,5,16,0.9,6.917,M,-28.722,M,0.8,0061*6C
$GPGSA,A,3,10,15,18,23,24,32,,,,,,,1.8,0.9,1.6*3F
$GLGSA,A,3,65,66,72,75,81,88,,,,,,,1.8,0.9,1.6*24
$GAGSA,A,3,07,08,13,26,,,,,,,,,1.8,0.9,1.6*2D
$GBGSA,A,3,,,,,,,,,,,,,1.8,0.9,1.6*27
$GPGSV,2,1,06,10,40,307,42,15,41,062,42,18,49,198,44,23,76,345,44*7E
$GPGSV,2,2,06,24,63,099,44,32,17,253,42,,,,,,,,*79
$GLGSV,2,1,06,65,60,342,43,66,23,282,41,72,31,062,38,75,31,120,42*66
$GLGSV,2,2,06,81,32,314,40,88,42,244,45,,,,,,,,*6C
$GAGSV,1,1,04,07,78,323,43,08,35,058,35,13,29,178,37,26,60,249,41*6F
$GNVTG,34.24,T,,M,2.57,N,4.76,K,D*12
$GNGST,161408.80,1.990,,,,0.068,0.064,0.159*65
$GNZDA,161408.80,10,10,2023,00,00*79
$GNRMC,161409.80,A,4220.3431448,N,07105.0699094,W,2.77,39.04,101023,,,D*68
$GNGGA,161409.80,4220.3431448,N,07105.0699094,W,5,16,0.9,6.889,M,-28.722,M,0.8,0061*66
$GPGSA,A,3,10,15,18,23,24,32,,,,,,,1.8,0.9,1.6*3F
$GLGSA,A,3,65,66,72,75,81,88,,,,,,,1.8,0.9,1.6*24
$GAGSA,A,3,07,08,13,26,,,,,,,,,1.8,0.9,1.6*2D
$GBGSA,A,3,,,,,,,,,,,,,1.8,0.9,1.6*27
$GPGSV,2,1,06,10,40,307,39,15,41,062,41,18,49,198,42,23,76,346,42*72
$GPGSV,2,2,06,24,63,099,42,32,17,253,40,,,,,,,,*7D
$GLGSV,2,1,06,65,60,342,42,66,23,282,42,72,31,062,38,75,31,120,41*67
$GLGSV,2,2,06,81,32,314,41,88,42,244,44,,,,,,,,*6C
$GAGSV,1,1,04,07,78,323,40,08,35,058,35,13,29,178,35,26,60,249,39*61
$GNVTG,39.04,T,,M,2.77,N,5.12,K,D*1C
$GNGST,161409.80,2.098,,,,0.067,0.063,0.157*60
$GNZDA,161409.80,10,10,2023,00,00*78
$GNRMC,161410.80,A,4220.3435831,N,07105.0692485,W,2.33,43.09,101023,,,D*69
$GNGGA,161410.80,4220.3435831,N,07105.0692485,W,5,15,0.9,6.918,M,-28.722,M,0.8,0061*6D
$GPGSA,A,3,10,15,18,23,24,32,,,,,,,1.8,0.9,1.6*3F
$GLGSA,A,3,65,66,72,75,81,88,,,,,,,1.8,0.9,1.6*24
$GAGSA,A,3,07,13,26,,,,,,,,,,1.8,0.9,1.6*25
$GBGSA,A,3,,,,,,,,,,,,,1.8,0.9,1.6*27
$GPGSV,2,1,06,10,40,307,41,15,41,062,41,18,49,198,43,23,76,346,44*7A
$GPGSV,2,2,06,24,63,099,42,32,17,253,39,,,,,,,,*73
$GLGSV,2,1,06,65,60,342,41,66,23,282,42,72,31,062,39,75,31,120,43*67
$GLGSV,2,2,06,81,32,314,42,88,42,244,46,,,,,,,,*6D
$GAGSV,1,1,03,07,78,324,41,13,29,178,39,26,60,249,41,,,,*56
$GNVTG,43.09,T,,M,2.33,N,4.32,K,D*1F
$GNGST,161410.80,2.043,,,,0.067,0.063,0.156*6F
$GNZDA,161410.80,10,10,2023,00,00*70
$GNRMC,161411.80,A,4220.3440911,N,07105.0685473,W,2.93,47.97,101023,,,D*6F
$GNGGA,161411.80,4220.3440911,N,07105.0685473,W,5,15,0.9,6.916,M,-28.722,M,0.8,0061*6C
$GPGSA,A,3,10,15,18,23,24,32,,,,,,,1.8,0.9,1.6*3F
$GLGSA,A,3,65,66,72,75,81,88,,,,,,,1.8,0.9,1.6*24
$GAGSA,A,3,07,13,26,,,,,,,,,,1.8,0.9,1.6*25
$GBGSA,A,3,,,,,,,,,,,,,1.8,0.9,1.6*27
$GPGSV,2,1,06,10,40,307,42,15,41,062,39,18,49,198,44,23,76,346,44*71
$GPGSV,2,2,06,24,63,099,42,32,18,253,40,,,,,,,,*72
$GLGSV,2,1,06,65,60,342,42,66,23,282,44,72,31,062,39,75,31,120,42*63
$GLGSV,2,2,06,81,32,314,43,88,42,244,47,,,,,,,,*6D
$GAGSV,1,1,03,07,78,324,41,13,29,178,40,26,60,249,41,,,,*58
$GNVTG,47.97,T,,M,2.93,N,5.42,K,D*10
$GNGST,161411.80,1.938,,,,0.066,0.062,0.154*6A
$GNZDA,161411.80,10,10,2023,00,00*71
$GNRMC,161412.80,A,4220.3446053,N,07105.0678371,W,2.87,52.10,101023,,,D*6C
$GNGGA,161412.80,4220.3446053,N,07105.0678371,W,5,16,0.9,6.889,M,-28.722,M,0.8,0061*65
$GPGSA,A,3,10,15,18,23,24,32,,,,,,,1.8,0.9,1.6*3F
$GLGSA,A,3,65,66,72,75,81,88,,,,,,,1.8,0.9,1.6*24
$GAGSA,A,3,07,08,13,26,,,,,,,,,1.8,0.9,1.6*2D
$GBGSA,A,3,,,,,,,,,,,,,1.8,0.9,1.6*27
$GPGSV,2,1,06,10,40,307,40,15,41,062,41,18,49,198,43,23,76,346,43*7C
$GPGSV,2,2,06,24,63,099,41,32,18,253,40,,,,,,,,*71
$GLGSV,2,1,06,65,60,342,42,66,23,282,44,72,31,062,40,75,31,120,42*6D
$GLGSV,2,2,06,81,32,314,43,88,42,244,47,,,,,,,,*6D
$GAGSV,1,1,04,07,78,324,41,08,35,058,36,13,29,178,38,26,60,249,40*67
$GNVTG,52.10,T,,M,2.87,N,5.31,K,D*1A
$GNGST,161412.80,2.071,,,,0.065,0.062,0.153*6A
$GNZDA,161412.80,10,10,2023,00,00*72
$GNRMC,161413.80,A,4220.3451333,N,07105.0671751,W,2.81,50.10,101023,,,D*65
$GNGGA,161413.80,4220.3451333,N,07105.0671751,W,5,16,0.9,6.885,M,-28.722,M,0.8,0061*64
$GPGSA,A,3,10,15,18,23,24,32,,,,,,,1.8,0.9,1.6*3F
$GLGSA,A,3,65,66,72,75,81,88,,,,,,,1.8,0.9,1.6*24
$GAGSA,A,3,07,08,13,26,,,,,,,,,1.8,0.9,1.6*2D
$GBGSA,A,3,,,,,,,,,,,,,1.8,0.9,1.6*27
$GPGSV,2,1,06,10,40,307,39,15,41,062,40,18,49,198,43,23,76,346,43*73
$GPGSV,2,2,06,24,63,099,42,32,18,253,40,,,,,,,,*72
$GLGSV,2,1,06,65,60,342,42,66,23,282,42,72,31,062,40,75,31,120,42*6B
$GLGSV,2,2,06,81,32,314,42,88,42,244,46,,,,,,,,*6D
$GAGSV,1,1,04,07,78,324,41,08,35,058,35,13,29,178,37,26,60,249,40*6B
$GNVTG,50.10,T,,M,2.81,N,5.20,K,D*1E
$GNGST,161413.80,2.060,,,,0.065,0.062,0.151*69
$GNZDA,161413.80,10,10,2023,00,00*73
$GNRMC,161414.80,A,4220.3456551,N,07105.0665676,W,2.54,44.83,101023,,,D*61
$GNGGA,161414.80,4220.3456551,N,07105.0665676,W,5,16,0.9,6.884,M,-28.722,M,0.8,0061*66
$GPGSA,A,3,10,15,18,23,24,32,,,,,,,1.8,0.9,1.6*3F
$GLGSA,A,3,65,66,72,75,81,88,,,,,,,1.8,0.9,1.6*24
$GAGSA,A,3,07,08,13,26,,,,,,,,,1.8,0.9,1.6*2D
$GBGSA,A,3,,,,,,,,,,,,,1.8,0.9,1.6*27
$GPGSV,2,1,06,10,40,307,40,15,41,062,39,18,49,198,42,23,76,346,44*75
$GPGSV,2,2,06,24,63,099,43,32,18,253,40,,,,,,,,*73
$GLGSV,2,1,06,65,60,342,43,66,23,282,43,72,31,062,39,75,31,120,42*65
$GLGSV,2,2,06,81,32,314,45,88,42,244,45,,,,,,,,*69
$GAGSV,1,1,04,07,78,324,41,08,35,058,35,13,29,178,39,26,60,249,41*64
$GNVTG,44.83,T,,M,2.54,N,4.70,K,D*1D
$GNGST,161414.80,2.035,,,,0.064,0.061,0.149*65
$GNZDA,161414.80,10,10,2023,00,00*74
$GNRMC,161415.80,A,4220.3462233,N,07105.0660286,W,2.08,33.61,101023,,,D*6F
$GNGGA,161415.80,4220.3462233,N,07105.0660286,W,5,16,0.9,6.910,M,-28.722,M,0.8,0061*61
$GPGSA,A,3,10,15,18,23,24,32,,,,,,,1.8,0.9,1.6*3F
$GLGSA,A,3,65,66,72,75,81,88,,,,,,,1.8,0.9,1.6*24
$GAGSA,A,3,07,08,13,26,,,,,,,,,1.8,0.9,1.6*2D
$GBGSA,A,3,,,,,,,,,,,,,1.8,0.9,1.6*27
$GPGSV,2,1,06,10,40,307,37,15,41,062,41,18,49,198,40,23,76,346,42*7E
$GPGSV,2,2,06,24,63,099,42,32,18,253,35,,,,,,,,*70
$GLGSV,2,1,06,65,60,342,43,66,23,282,39,72,31,062,41,75,31,120,43*66
$GLGSV,2,2,06,81,32,314,41,88,42,243,43,,,,,,,,*6C
$GAGSV,1,1,04,07,78,324,40,08,35,058,36,13,29,178,37,26,60,249,38*66
$GNVTG,33.61,T,,M,2.08,N,3.85,K,D*15
$GNGST,161415.80,2.166,,,,0.064,0.061,0.148*62
$GNZDA,161415.80,10,10,2023,00,00*75
$GNRMC,161416.80,A,4220.3466899,N,07105.0657400,W,1.24,355.02,101023,,,D*55
$GNGGA,161416.80,4220.3466899,N,07105.0657400,W,4,15,0.9,6.832,M,-28.722,M,0.8,0061*63
$GPGSA,A,3,15,18,23,24,32,,,,,,,,1.8,0.9,1.6*3E
$GLGSA,A,3,65,66,72,75,81,88,,,,,,,1.8,0.9,1.6*24
$GAGSA,A,3,07,08,13,26,,,,,,,,,1.8,0.9,1.6*2D
$GBGSA,A,3,,,,,,,,,,,,,1.8,0.9,1.6*27
$GPGSV,2,1,05,15,41,062,41,18,49,198,39,23,76,346,41,24,63,099,41*73
$GPGSV,2,2,05,32,18,253,35,,,,,,,,,,,,*46
$GLGSV,2,1,06,65,60,342,40,66,23,282,39,72,31,062,42,75,31,120,43*66
$GLGSV,2,2,06,81,32,314,40,88,42,243,39,,,,,,,,*60
$GAGSV,1,1,04,07,78,324,39,08,35,058,36,13,29,178,37,26,60,249,38*68
$GNVTG,355.02,T,,M,1.24,N,2.30,K,D*21
$GNGST,161416.80,2.282,,,,0.008,0.006,0.017*68
$GNZDA,161416.80,10,10,2023,00,00*76
$GNRMC,161417.80,A,4220.3471566,N,07105.0661888,W,2.43,308.56,101023,,,D*5D
$GNGGA,161417.80,4220.3471566,N,07105.0661888,W,5,15,0.9,6.881,M,-28.722,M,0.8,0061*69
$GPGSA,A,3,10,15,18,23,24,,,,,,,,2.0,0.9,1.8*3B
$GLGSA,A,3,65,66,72,74,75,81,88,,,,,,2.0,0.9,1.8*22
$GAGSA,A,3,07,08,26,,,,,,,,,,2.0,0.9,1.8*2A
$GBGSA,A,3,,,,,,,,,,,,,2.0,0.9,1.8*22
$GPGSV,2,1,05,10,40,307,40,15,41,062,41,18,49,198,38,23,76,346,41*71
$GPGSV,2,2,05,24,63,099,43,,,,,,,,,,,,*48
$GLGSV,2,1,07,65,60,342,41,66,23,282,39,72,31,062,42,74,30,054,36*66
$GLGSV,2,2,07,75,31,120,41,81,32,314,40,88,42,243,42,,,,*5B
$GAGSV,1,1,03,07,78,324,39,08,35,058,38,26,60,249,37,,,,*5D
$GNVTG,308.56,T,,M,2.43,N,4.50,K,D*2A
$GNGST,161417.80,2.207,,,,0.063,0.060,0.145*6F
$GNZDA,161417.80,10,10,2023,00,00*77
$GNRMC,161418.80,A,4220.3476038,N,07105.0667729,W,2.73,311.90,101023,,,D*58
$GNGGA,161418.80,4220.3476038,N,07105.0667729,W,5,16,0.9,6.918,M,-28.722,M,0.8,0061*6F
$GPGSA,A,3,10,15,18,23,24,,,,,,,,2.0,0.9,1.8*3B
$GLGSA,A,3,65,66,72,74,75,81,88,,,,,,2.0,0.9,1.8*22
$GAGSA,A,3,07,08,13,26,,,,,,,,,2.0,0.9,1.8*28
$GBGSA,A,3,,,,,,,,,,,,,2.0,0.9,1.8*22
$GPGSV,2,1,05,10,40,307,36,15,41,062,42,18,49,198,40,23,76,346,41*7C
$GPGSV,2,2,05,24,63,099,41,,,,,,,,,,,,*4A
$GLGSV,2,1,07,65,60,342,42,66,23,282,39,72,31,062,42,74,30,054,36*65
$GLGSV,2,2,07,75,31,120,45,81,32,314,42,88,42,243,43,,,,*5C
$GAGSV,1,1,04,07,78,324,39,08,35,058,38,13,29,178,36,26,60,249,37*68
$GNVTG,311.90,T,,M,2.73,N,5.06,K,D*29
$GNGST,161418.80,2.196,,,,0.062,0.060,0.144*6B
$GNZDA,161418.80,10,10,2023,00,00*78
$GNRMC,161419.80,A,4220.3480964,N,07105.0674091,W,2.42,312.60,101023,,,D*58
$GNGGA,161419.80,4220.3480964,N,07105.0674091,W,5,16,0.9,6.928,M,-28.722,M,0.8,0061*62
$GPGSA,A,3,10,15,18,23,24,32,,,,,,,1.8,0.9,1.6*3F
$GLGSA,A,3,65,66,72,75,81,88,,,,,,,1.8,0.9,1.6*24
$GAGSA,A,3,07,08,13,26,,,,,,,,,1.8,0.9,1.6*2D
$GBGSA,A,3,,,,,,,,,,,,,1.8,0.9,1.6*27
$GPGSV,2,1,06,10,40,307,40,15,41,062,44,18,49,198,43,23,76,346,44*7E
$GPGSV,2,2,06,24,63,099,45,32,18,253,37,,,,,,,,*75
$GLGSV,2,1,06,65,60,342,41,66,23,282,38,72,31,062,43,75,31,120,45*61
$GLGSV,2,2,06,81,32,314,42,88,42,243,42,,,,,,,,*6E
$GAGSV,1,1,04,07,78,324,42,08,35,058,40,13,29,178,39,26,60,249,41*65
$GNVTG,312.60,T,,M,2.42,N,4.48,K,D*2C
$GNGST,161419.80,2.443,,,,0.062,0.059,0.142*6B
$GNZDA,161419.80,10,10,2023,00,00*79
$GNRMC,161420.80,A,4220.3485678,N,07105.0681069,W,2.25,316.89,101023,,,D*5A
$GNGGA,161420.80,4220.3485678,N,07105.0681069,W,5,17,0.9,6.895,M,-28.722,M,0.8,0061*64
$GPGSA,A,3,10,15,18,23,24,32,,,,,,,1.8,0.9,1.6*3F
$GLGSA,A,3,65,66,72,74,75,81,88,,,,,,1.8,0.9,1.6*27
$GAGSA,A,3,07,08,13,26,,,,,,,,,1.8,0.9,1.6*2D
$GBGSA,A,3,,,,,,,,,,,,,1.8,0.9,1.6*27
$GPGSV,2,1,06,10,40,307,41,15,41,062,44,18,49,198,43,23,77,346,44*7E
$GPGSV,2,2,06,24,63,099,45,32,18,253,38,,,,,,,,*7A
$GLGSV,2,1,07,65,60,342,43,66,23,282,39,72,31,062,44,74,30,054,36*62
$GLGSV,2,2,07,75,31,120,45,81,32,314,41,88,42,243,44,,,,*58
$GAGSV,1,1,04,07,78,324,42,08,35,058,40,13,29,178,37,26,60,249,42*68
$GNVTG,316.89,T,,M,2.25,N,4.18,K,D*2B
$GNGST,161420.80,2.300,,,,0.061,0.059,0.141*61
$GNZDA,161420.80,10,10,2023,00,00*73
$GNRMC,161421.80,A,4220.3490451,N,07105.0688402,W,2.97,317.75,101023,,,D*5D
$GNGGA,161421.80,4220.3490451,N,07105.0688402,W,5,16,0.9,6.874,M,-28.722,M,0.8,0061*66
$GPGSA,A,3,10,15,18,23,24,32,,,,,,,1.8,0.9,1.6*3F
$GLGSA,A,3,65,66,72,74,75,81,88,,,,,,1.8,0.9,1.6*27
$GAGSA,A,3,07,08,26,,,,,,,,,,1.8,0.9,1.6*2F
$GBGSA,A,3,,,,,,,,,,,,,1.8,0.9,1.6*27
$GPGSV,2,1,06,10,40,307,39,15,41,062,44,18,49,198,40,23,77,346,44*72
$GPGSV,2,2,06,24,63,099,45,32,18,253,38,,,,,,,,*7A
$GLGSV,2,1,07,65,60,342,44,66,23,282,41,72,31,062,44,74,30,054,36*6A
$GLGSV,2,2,07,75,31,120,44,81,32,314,44,88,42,243,45,,,,*5D
$GAGSV,1,1,03,07,78,324,42,08,35,058,41,26,60,249,42,,,,*5D
$GNVTG,317.75,T,,M,2.97,N,5.51,K,D*2C
$GNGST,161421.80,2.094,,,,0.061,0.059,0.139*61
$GNZDA,161421.80,10,10,2023,00,00*72
$GNRMC,161422.80,A,4220.3494941,N,07105.0695630,W,2.72,313.41,101023,,,D*51
$GNGGA,161422.80,4220.3494941,N,07105.0695630,W,5,17,0.9,6.868,M,-28.722,M,0.8,0061*6E
$GPGSA,A,3,10,15,18,23,24,32,,,,,,,1.8,0.9,1.6*3F
$GLGSA,A,3,65,66,72,74,75,81,88,,,,,,1.8,0.9,1.6*27
$GAGSA,A,3,07,08,13,26,,,,,,,,,1.8,0.9,1.6*2D
$GBGSA,A,3,,,,,,,,,,,,,1.8,0.9,1.6*27
$GPGSV,2,1,06,10,40,307,41,15,41,062,44,18,49,198,43,23,77,346,44*7E
$GPGSV,2,2,06,24,63,099,44,32,18,253,40,,,,,,,,*74
$GLGSV,2,1,07,65,60,342,43,66,23,282,42,72,31,062,43,74,30,054,36*69
$GLGSV,2,2,07,75,31,120,44,81,32,314,44,88,42,243,45,,,,*5D
$GAGSV,1,1,04,07,78,324,42,08,35,058,41,13,29,178,36,26,60,249,42*68
$GNVTG,313.41,T,,M,2.72,N,5.04,K,D*24
$GNGST,161422.80,2.112,,,,0.060,0.058,0.138*6C
$GNZDA,161422.80,10,10,2023,00,00*71
$GNRMC,161423.80,A,4220.3499570,N,07105.0702888,W,2.09,312.52,101023,,,D*5E
$GNGGA,161423.80,4220.3499570,N,07105.0702888,W,5,17,0.9,6.876,M,-28.722,M,0.8,0061*61
$GPGSA,A,3,10,15,18,23,24,32,,,,,,,1.8,0.9,1.6*3F
$GLGSA,A,3,65,66,72,74,75,81,88,,,,,,1.8,0.9,1.6*27
$GAGSA,A,3,07,08,13,26,,,,,,,,,1.8,0.9,1.6*2D
$GBGSA,A,3,,,,,,,,,,,,,1.8,0.9,1.6*27
$GPGSV,2,1,06,10,40,307,42,15,41,062,44,18,49,198,43,23,77,346,45*7C
$GPGSV,2,2,06,24,63,099,44,32,18,253,38,,,,,,,,*7B
$GLGSV,2,1,07,65,60,342,42,66,23,282,39,72,31,062,42,74,30,054,35*66
$GLGSV,2,2,07,75,31,120,44,81,32,314,43,88,42,243,43,,,,*5C
$GAGSV,1,1,04,07,78,324,42,08,35,058,39,13,29,178,36,26,60,249,42*67
$GNVTG,312.52,T,,M,2.09,N,3.86,K,D*27
$GNGST,161423.80,1.996,,,,0.060,0.058,0.136*64
$GNZDA,161423.80,10,10,2023,00,00*70
$GNRMC,161424.80,A,4220.3504212,N,07105.0709929,W,1.98,308.16,101023,,,D*5E
$GNGGA,161424.80,4220.3504212,N,07105.0709929,W,5,17,0.9,6.869,M,-28.722,M,0.8,0061*6F
$GPGSA,A,3,10,15,18,23,24,32,,,,,,,1.8,0.9,1.6*3F
$GLGSA,A,3,65,66,72,74,75,81,88,,,,,,1.8,0.9,1.6*27
$GAGSA,A,3,07,08,13,26,,,,,,,,,1.8,0.9,1.6*2D
$GBGSA,A,3,,,,,,,,,,,,,1.8,0.9,1.6*27
$GPGSV,2,1,06,10,40,307,42,15,41,062,45,18,49,198,41,23,77,346,44*7E
$GPGSV,2,2,06,24,63,098,45,32,18,253,36,,,,,,,,*75
$GLGSV,2,1,07,65,60,342,43,66,23,282,37,72,31,062,42,74,30,054,35*69
$GLGSV,2,2,07,75,31,120,44,81,32,314,43,88,42,243,42,,,,*5D
$GAGSV,1,1,04,07,78,324,41,08,35,058,39,13,29,178,37,26,60,249,41*66
$GNVTG,308.16,T,,M,1.98,N,3.68,K,D*27
$GNGST,161424.80,2.125,,,,0.059,0.058,0.135*69
$GNZDA,161424.80,10,10,2023,00,00*77
$GNRMC,161425.80,A,4220.3508547,N,07105.0717439,W,2.87,301.15,101023,,,D*50
$GNGGA,161425.80,4220.3508547,N,07105.0717439,W,5,16,0.9,6.804,M,-28.722,M,0.8,0061*6C
$GPGSA,A,3,10,15,18,23,24,32,,,,,,,1.8,0.9,1.6*3F
$GLGSA,A,3,65,66,72,75,81,88,,,,,,,1.8,0.9,1.6*24
$GAGSA,A,3,07,08,13,26,,,,,,,,,1.8,0.9,1.6*2D
$GBGSA,A,3,,,,,,,,,,,,,1.8,0.9,1.6*27
$GPGSV,2,1,06,10,40,307,42,15,41,062,42,18,49,198,41,23,77,346,44*79
$GPGSV,2,2,06,24,63,098,43,32,18,253,40,,,,,,,,*72
$GLGSV,2,1,06,65,60,342,43,66,23,282,45,72,31,062,40,75,31,120,42*6D
$GLGSV,2,2,06,81,32,314,44,88,42,243,46,,,,,,,,*6C
$GAGSV,1,1,04,07,78,324,40,08,35,058,35,13,29,178,36,26,60,249,41*6A
$GNVTG,301.15,T,,M,2.87,N,5.31,K,D*2A
$GNGST,161425.80,2.039,,,,0.059,0.057,0.133*6D
$GNZDA,161425.80,10,10,2023,00,00*76
$GNRMC,161426.80,A,4220.3513462,N,07105.0724421,W,3.04,308.75,101023,,,D*53
$GNGGA,161426.80,4220.3513462,N,07105.0724421,W,5,14,0.9,6.773,M,-28.722,M,0.8,0061*67
$GPGSA,A,3,10,15,18,23,24,32,,,,,,,1.8,0.9,1.6*3F
$GLGSA,A,3,65,66,72,75,81,88,,,,,,,1.8,0.9,1.6*24
$GAGSA,A,3,07,26,,,,,,,,,,,1.8,0.9,1.6*27
$GBGSA,A,3,,,,,,,,,,,,,1.8,0.9,1.6*27
$GPGSV,2,1,06,10,40,307,41,15,41,062,38,18,49,198,40,23,77,346,43*71
$GPGSV,2,2,06,24,63,098,41,32,18,253,41,,,,,,,,*71
$GLGSV,2,1,06,65,60,342,41,66,23,282,45,72,31,062,37,75,31,120,39*63
$GLGSV,2,2,06,81,32,314,42,88,42,243,46,,,,,,,,*6A
$GAGSV,1,1,02,07,78,324,40,26,60,249,39,,,,,,,,*64
$GNVTG,308.75,T,,M,3.04,N,5.62,K,D*29
$GNGST,161426.80,2.021,,,,0.058,0.057,0.132*67
$GNZDA,161426.80,10,10,2023,00,00*75
$GNRMC,161427.80,A,4220.3518858,N,07105.0731276,W,2.53,310.27,101023,,,D*51
$GNGGA,161427.80,4220.3518858,N,07105.0731276,W,5,14,1.0,6.756,M,-28.722,M,0.8,0061*67
$GPGSA,A,3,10,15,18,23,24,32,,,,,,,2.0,1.0,1.7*3D
$GLGSA,A,3,65,66,72,81,88,,,,,,,,2.0,1.0,1.7*24
$GAGSA,A,3,07,08,26,,,,,,,,,,2.0,1.0,1.7*2D
$GBGSA,A,3,,,,,,,,,,,,,2.0,1.0,1.7*25
$GPGSV,2,1,06,10,40,307,39,15,41,062,37,18,49,198,38,23,77,346,40*7D
$GPGSV,2,2,06,24,63,098,39,32,18,253,37,,,,,,,,*7F
$GLGSV,2,1,05,65,60,342,38,66,23,282,44,72,31,062,36,81,32,314,41*6C
$GLGSV,2,2,05,88,42,243,41,,,,,,,,,,,,*56
$GAGSV,1,1,03,07,78,324,38,08,35,058,35,26,60,249,38,,,,*5E
$GNVTG,310.27,T,,M,2.53,N,4.68,K,D*2F
$GNGST,161427.80,2.001,,,,0.058,0.057,0.131*67
$GNZDA,161427.80,10,10,2023,00,00*74
$GNRMC,161428.80,A,4220.3523391,N,07105.0738262,W,2.59,307.49,101023,,,D*50
$GNGGA,161428.80,4220.3523391,N,07105.0738262,W,5,12,1.2,6.784,M,-28.722,M,0.8,0061*69
$GPGSA,A,3,10,15,18,23,24,32,,,,,,,2.4,1.2,2.1*3E
$GLGSA,A,3,65,66,81,88,,,,,,,,,2.4,1.2,2.1*22
$GAGSA,A,3,07,26,,,,,,,,,,,2.4,1.2,2.1*26
$GBGSA,A,3,,,,,,,,,,,,,2.4,1.2,2.1*26
$GPGSV,2,1,06,10,40,307,41,15,41,062,36,18,49,198,37,23,77,346,40*7C
$GPGSV,2,2,06,24,63,098,38,32,18,253,37,,,,,,,,*7E
$GLGSV,1,1,04,65,60,342,38,66,23,282,40,81,32,314,41,88,42,243,41*6A
$GAGSV,1,1,02,07,78,324,37,26,60,249,37,,,,,,,,*6A
$GNVTG,307.49,T,,M,2.59,N,4.80,K,D*2D
$GNGST,161428.80,1.095,,,,0.057,0.057,0.130*68
$GNZDA,161428.80,10,10,2023,00,00*7B
$GNRMC,161429.80,A,4220.3527904,N,07105.0744931,W,2.30,320.43,101023,,,D*55
$GNGGA,161429.80,4220.3527904,N,07105.0744931,W,5,13,1.0,6.793,M,-28.722,M,0.8,0061*69
$GPGSA,A,3,10,15,18,23,24,32,,,,,,,2.0,1.0,1.7*3D
$GLGSA,A,3,65,66,72,81,88,,,,,,,,2.0,1.0,1.7*24
$GAGSA,A,3,07,26,,,,,,,,,,,2.0,1.0,1.7*25
$GBGSA,A,3,,,,,,,,,,,,,2.0,1.0,1.7*25
$GPGSV,2,1,06,10,40,307,42,15,41,062,36,18,49,198,40,23,77,346,43*7C
$GPGSV,2,2,06,24,63,098,40,32,18,253,39,,,,,,,,*7F
$GLGSV,2,1,05,65,60,343,41,66,23,283,44,72,31,062,35,81,32,314,44*64
$GLGSV,2,2,05,88,42,243,44,,,,,,,,,,,,*53
$GAGSV,1,1,02,07,78,324,41,26,60,249,41,,,,,,,,*6A
$GNVTG,320.43,T,,M,2.30,N,4.25,K,D*22
$GNGST,161429.80,2.118,,,,0.057,0.056,0.129*67
$GNZDA,161429.80,10,10,2023,00,00*7A
$GNRMC,161430.80,A,4220.3532259,N,07105.0752030,W,2.70,318.42,101023,,,D*5B
$GNGGA,161430.80,4220.3532259,N,07105.0752030,W,5,15,0.9,6.777,M,-28.722,M,0.8,0061*6D
$GPGSA,A,3,10,15,18,23,24,32,,,,,,,1.8,0.9,1.6*3F
$GLGSA,A,3,65,66,72,75,81,88,,,,,,,1.8,0.9,1.6*24
$GAGSA,A,3,07,08,26,,,,,,,,,,1.8,0.9,1.6*2F
$GBGSA,A,3,,,,,,,,,,,,,1.8,0.9,1.6*27
$GPGSV,2,1,06,10,40,307,42,15,41,062,38,18,49,198,39,23,77,346,43*7C
$GPGSV,2,2,06,24,63,098,41,32,18,253,38,,,,,,,,*7F
$GLGSV,2,1,06,65,60,343,42,66,23,283,43,72,31,062,38,75,31,120,37*67
$GLGSV,2,2,06,81,32,314,44,88,42,243,44,,,,,,,,*6E
$GAGSV,1,1,03,07,78,324,40,08,35,058,36,26,60,249,40,,,,*5D
$GNVTG,318.42,T,,M,2.70,N,5.00,K,D*2A
$GNGST,161430.80,2.330,,,,0.056,0.056,0.128*67
$GNZDA,161430.80,10,10,2023,00,00*72
$GNRMC,161431.80,A,4220.3536824,N,07105.0758892,W,2.37,319.03,101023,,,D*53
$GNGGA,161431.80,4220.3536824,N,07105.0758892,W,5,16,0.9,6.764,M,-28.722,M,0.8,0061*63
$GPGSA,A,3,10,15,18,23,24,32,,,,,,,1.8,0.9,1.6*3F
$GLGSA,A,3,65,66,72,75,81,88,,,,,,,1.8,0.9,1.6*24
$GAGSA,A,3,07,08,13,26,,,,,,,,,1.8,0.9,1.6*2D
$GBGSA,A,3,,,,,,,,,,,,,1.8,0.9,1.6*27
$GPGSV,2,1,06,10,40,307,43,15,41,062,43,18,49,198,43,23,77,346,45*7A
$GPGSV,2,2,06,24,63,098,43,32,18,253,38,,,,,,,,*7D
$GLGSV,2,1,06,65,60,343,42,66,23,283,42,72,31,062,39,75,31,120,39*69
$GLGSV,2,2,06,81,32,314,44,88,42,243,43,,,,,,,,*69
$GAGSV,1,1,04,07,78,324,42,08,35,058,38,13,29,178,35,26,60,249,42*65
$GNVTG,319.03,T,,M,2.37,N,4.40,K,D*28
$GNGST,161431.80,2.147,,,,0.056,0.056,0.126*6A
$GNZDA,161431.80,10,10,2023,00,00*73
$GNRMC,161432.80,A,4220.3541656,N,07105.0765772,W,2.53,314.36,101023,,,D*5D
$GNGGA,161432.80,4220.3541656,N,07105.0765772,W,5,16,0.9,6.787,M,-28.722,M,0.8,0061*69
$GPGSA,A,3,10,15,18,23,24,32,,,,,,,1.8,0.9,1.6*3F
$GLGSA,A,3,65,66,72,75,81,88,,,,,,,1.8,0.9,1.6*24
$GAGSA,A,3,07,08,13,26,,,,,,,,,1.8,0.9,1.6*2D
$GBGSA,A,3,,,,,,,,,,,,,1.8,0.9,1.6*27
$GPGSV,2,1,06,10,40,307,44,15,41,062,41,18,49,198,42,23,77,346,44*7F
$GPGSV,2,2,06,24,63,098,42,32,18,253,37,,,,,,,,*73
$GLGSV,2,1,06,65,60,343,43,66,23,283,44,72,31,062,40,75,31,120,39*60
$GLGSV,2,2,06,81,32,314,45,88,42,243,45,,,,,,,,*6E
$GAGSV,1,1,04,07,78,324,42,08,35,058,36,13,29,178,35,26,60,249,41*68
$GNVTG,314.36,T,,M,2.53,N,4.69,K,D*2A
$GNGST,161432.80,2.348,,,,0.055,0.055,0.125*67
$GNZDA,161432.80,10,10,2023,00,00*70
$GNRMC,161433.80,A,4220.3546160,N,07105.0773257,W,2.43,307.53,101023,,,D*5C
$GNGGA,161433.80,4220.3546160,N,07105.0773257,W,5,13,0.9,6.763,M,-28.722,M,0.8,0061*67
$GPGSA,A,3,10,15,18,23,24,,,,,,,,2.0,0.9,1.8*3B
$GLGSA,A,3,65,66,72,75,81,88,,,,,,,2.0,0.9,1.8*21
$GAGSA,A,3,07,26,,,,,,,,,,,2.0,0.9,1.8*22
$GBGSA,A,3,,,,,,,,,,,,,2.0,0.9,1.8*22
$GPGSV,2,1,05,10,40,307,41,15,41,062,36,18,49,198,36,23,77,346,40*7E
$GPGSV,2,2,05,24,63,098,36,,,,,,,,,,,,*4B
$GLGSV,2,1,06,65,60,343,41,66,23,283,41,72,31,062,38,75,31,120,36*67
$GLGSV,2,2,06,81,32,314,43,88,42,243,44,,,,,,,,*69
$GAGSV,1,1,02,07,78,324,37,26,60,249,37,,,,,,,,*6A
$GNVTG,307.53,T,,M,2.43,N,4.50,K,D*20
$GNGST,161433.80,2.158,,,,0.055,0.055,0.124*64
$GNZDA,161433.80,10,10,2023,00,00*71
$GNRMC,161434.80,A,4220.3550753,N,07105.0780622,W,3.10,302.74,101023,,,D*57
$GNGGA,161434.80,4220.3550753,N,07105.0780622,W,5,13,1.0,6.750,M,-28.722,M,0.8,0061*63
$GPGSA,A,3,10,15,18,23,24,32,,,,,,,2.0,1.0,1.7*3D
$GLGSA,A,3,65,66,72,81,88,,,,,,,,2.0,1.0,1.7*24
$GAGSA,A,3,07,26,,,,,,,,,,,2.0,1.0,1.7*25
$GBGSA,A,3,,,,,,,,,,,,,2.0,1.0,1.7*25
$GPGSV,2,1,06,10,40,307,43,15,41,062,36,18,49,198,40,23,77,346,41*7F
$GPGSV,2,2,06,24,63,098,39,32,18,253,40,,,,,,,,*7F
$GLGSV,2,1,05,65,60,343,39,66,23,283,42,72,31,062,35,81,32,314,42*6B
$GLGSV,2,2,05,88,42,243,44,,,,,,,,,,,,*53
$GAGSV,1,1,02,07,78,324,39,26,60,249,40,,,,,,,,*64
$GNVTG,302.74,T,,M,3.10,N,5.74,K,D*20
$GNGST,161434.80,2.196,,,,0.054,0.055,0.123*67
$GNZDA,161434.80,10,10,2023,00,00*76
$GNRMC,161435.80,A,4220.3555590,N,07105.0787747,W,2.96,304.02,101023,,,D*53
$GNGGA,161435.80,4220.3555590,N,07105.0787747,W,5,15,0.9,6.710,M,-28.722,M,0.8,0061*65
$GPGSA,A,3,10,15,18,23,24,32,,,,,,,1.8,0.9,1.6*3F
$GLGSA,A,3,65,66,72,75,81,88,,,,,,,1.8,0.9,1.6*24
$GAGSA,A,3,07,08,26,,,,,,,,,,1.8,0.9,1.6*2F
$GBGSA,A,3,,,,,,,,,,,,,1.8,0.9,1.6*27
$GPGSV,2,1,06,10,40,307,43,15,41,062,39,18,49,198,40,23,77,346,43*72
$GPGSV,2,2,06,24,63,098,41,32,18,253,41,,,,,,,,*71
$GLGSV,2,1,06,65,60,343,41,66,23,283,43,72,31,062,38,75,31,120,37*64
$GLGSV,2,2,06,81,32,314,43,88,42,243,44,,,,,,,,*69
$GAGSV,1,1,03,07,78,324,39,08,35,058,36,26,60,249,40,,,,*53
$GNVTG,304.02,T,,M,2.96,N,5.49,K,D*26
$GNGST,161435.80,2.101,,,,0.054,0.054,0.122*68
$GNZDA,161435.80,10,10,2023,00,00*77
$GNRMC,161436.80,A,4220.3560230,N,07105.0795147,W,2.34,301.06,101023,,,D*57
$GNGGA,161436.80,4220.3560230,N,07105.0795147,W,5,15,0.9,6.657,M,-28.722,M,0.8,0061*6A
$GPGSA,A,3,10,15,18,23,24,32,,,,,,,1.8,0.9,1.6*3F
$GLGSA,A,3,65,66,72,75,81,88,,,,,,,1.8,0.9,1.6*24
$GAGSA,A,3,07,08,26,,,,,,,,,,1.8,0.9,1.6*2F
$GBGSA,A,3,,,,,,,,,,,,,1.8,0.9,1.6*27
$GPGSV,2,1,06,10,40,307,44,15,41,062,40,18,49,198,41,23,77,346,44*7D
$GPGSV,2,2,06,24,63,098,41,32,18,253,39,,,,,,,,*7E
$GLGSV,2,1,06,65,60,343,38,66,23,283,40,72,31,062,36,75,31,120,36*66
$GLGSV,2,2,06,81,32,314,41,88,42,243,42,,,,,,,,*6D
$GAGSV,1,1,03,07,78,324,40,08,35,058,36,26,60,249,42,,,,*5F
$GNVTG,301.06,T,,M,2.34,N,4.34,K,D*24
$GNGST,161436.80,2.032,,,,0.053,0.054,0.121*6E
$GNZDA,161436.80,10,10,2023,00,00*74
$GNRMC,161437.80,A,4220.3564799,N,07105.0802372,W,2.65,307.10,101023,,,D*54
$GNGGA,161437.80,4220.3564799,N,07105.0802372,W,5,11,1.2,6.685,M,-28.722,M,0.8,0061*6D
$GPGSA,A,3,10,15,18,23,24,,,,,,,,2.8,1.2,2.5*37
$GLGSA,A,3,65,66,81,88,,,,,,,,,2.8,1.2,2.5*2A
$GAGSA,A,3,07,26,,,,,,,,,,,2.8,1.2,2.5*2E
$GBGSA,A,3,,,,,,,,,,,,,2.8,1.2,2.5*2E
$GPGSV,2,1,05,10,40,307,39,15,41,062,38,18,49,198,36,23,77,346,38*70
$GPGSV,2,2,05,24,63,098,36,,,,,,,,,,,,*4B
$GLGSV,1,1,04,65,60,343,38,66,23,283,40,81,32,314,40,88,42,243,40*6A
$GAGSV,1,1,02,07,78,324,37,26,60,248,36,,,,,,,,*6A
$GNVTG,307.10,T,,M,2.65,N,4.91,K,D*2E
$GNGST,161437.80,1.192,,,,0.053,0.054,0.120*66
$GNZDA,161437.80,10,10,2023,00,00*75
$GNRMC,161438.80,A,4220.3569592,N,07105.0809099,W,2.32,314.82,101023,,,D*59
$GNGGA,161438.80,4220.3569592,N,07105.0809099,W,5,14,0.9,6.700,M,-28.722,M,0.8,0061*68
$GPGSA,A,3,10,15,18,23,24,32,,,,,,,1.8,0.9,1.6*3F
$GLGSA,A,3,65,66,72,75,81,88,,,,,,,1.8,0.9,1.6*24
$GAGSA,A,3,07,26,,,,,,,,,,,1.8,0.9,1.6*27
$GBGSA,A,3,,,,,,,,,,,,,1.8,0.9,1.6*27
$GPGSV,2,1,06,10,40,307,41,15,41,062,37,18,49,198,40,23,77,346,43*7E
$GPGSV,2,2,06,24,63,098,41,32,18,253,35,,,,,,,,*72
$GLGSV,2,1,06,65,60,343,41,66,23,283,44,72,31,062,36,75,31,120,38*62
$GLGSV,2,2,06,81,32,314,43,88,42,243,44,,,,,,,,*69
$GAGSV,1,1,02,07,78,324,39,26,60,248,39,,,,,,,,*6B
$GNVTG,314.82,T,,M,2.32,N,4.29,K,D*26
$GNGST,161438.80,2.103,,,,0.053,0.053,0.118*6E
$GNZDA,161438.80,10,10,2023,00,00*7A
$GNRMC,161439.80,A,4220.3574249,N,07105.0816105,W,2.74,321.01,101023,,,D*50
$GNGGA,161439.80,4220.3574249,N,07105.0816105,W,5,14,0.9,6.657,M,-28.722,M,0.8,0061*6D
$GPGSA,A,3,10,15,18,23,24,32,,,,,,,1.8,0.9,1.6*3F
$GLGSA,A,3,65,66,72,75,81,88,,,,,,,1.8,0.9,1.6*24
$GAGSA,A,3,07,26,,,,,,,,,,,1.8,0.9,1.6*27
$GBGSA,A,3,,,,,,,,,,,,,1.8,0.9,1.6*27
$GPGSV,2,1,06,10,40,307,41,15,41,062,38,18,49,198,38,23,77,346,41*7C
$GPGSV,2,2,06,24,63,098,39,32,18,253,37,,,,,,,,*7F
$GLGSV,2,1,06,65,60,343,42,66,23,283,44,72,31,062,40,75,31,120,38*60
$GLGSV,2,2,06,81,32,314,43,88,42,243,44,,,,,,,,*69
$GAGSV,1,1,02,07,78,324,38,26,60,248,38,,,,,,,,*6B
$GNVTG,321.01,T,,M,2.74,N,5.07,K,D*24
$GNGST,161439.80,2.020,,,,0.052,0.053,0.117*61
$GNZDA,161439.80,10,10,2023,00,00*7B
$GNRMC,161440.80,A,4220.3578808,N,07105.0823003,W,2.62,319.26,101023,,,D*55
$GNGGA,161440.80,4220.3578808,N,07105.0823003,W,5,14,0.9,6.646,M,-28.722,M,0.8,0061*61
$GPGSA,A,3,10,15,18,23,24,32,,,,,,,1.8,0.9,1.6*3F
$GLGSA,A,3,65,66,72,75,81,88,,,,,,,1.8,0.9,1.6*24
$GAGSA,A,3,07,26,,,,,,,,,,,1.8,0.9,1.6*27
$GBGSA,A,3,,,,,,,,,,,,,1.8,0.9,1.6*27
$GPGSV,2,1,06,10,40,307,39,15,41,062,37,18,49,198,38,23,77,346,40*7D
$GPGSV,2,2,06,24,63,098,38,32,18,253,36,,,,,,,,*7F
$GLGSV,2,1,06,65,60,343,41,66,23,283,43,72,31,062,40,75,31,119,36*60
$GLGSV,2,2,06,81,32,314,41,88,42,243,43,,,,,,,,*6C
$GAGSV,1,1,02,07,78,324,38,26,60,248,38,,,,,,,,*6B
$GNVTG,319.26,T,,M,2.62,N,4.85,K,D*26
$GNGST,161440.80,2.045,,,,0.052,0.053,0.115*6E
$GNZDA,161440.80,10,10,2023,00,00*75
$GNRMC,161441.80,A,4220.3583439,N,07105.0830047,W,2.57,317.99,101023,,,D*50
$GNGGA,161441.80,4220.3583439,N,07105.0830047,W,5,14,0.9,6.700,M,-28.722,M,0.8,0061*6B
$GPGSA,A,3,10,15,18,23,24,32,,,,,,,1.8,0.9,1.6*3F
$GLGSA,A,3,65,66,72,75,81,88,,,,,,,1.8,0.9,1.6*24
$GAGSA,A,3,07,26,,,,,,,,,,,1.8,0.9,1.6*27
$GBGSA,A,3,,,,,,,,,,,,,1.8,0.9,1.6*27
$GPGSV,2,1,06,10,40,307,42,15,41,062,40,18,49,198,40,23,77,346,43*7D
$GPGSV,2,2,06,24,63,098,40,32,18,253,36,,,,,,,,*70
$GLGSV,2,1,06,65,60,343,41,66,23,283,44,72,31,062,40,75,31,119,38*69
$GLGSV,2,2,06,81,32,314,44,88,42,243,43,,,,,,,,*69
$GAGSV,1,1,02,07,78,324,40,26,60,248,40,,,,,,,,*6B
$GNVTG,317.99,T,,M,2.57,N,4.77,K,D*27
$GNGST,161441.80,2.012,,,,0.051,0.052,0.114*6E
$GNZDA,161441.80,10,10,2023,00,00*74
$GNRMC,161442.80,A,4220.3587881,N,07105.0836724,W,2.27,310.13,101023,,,D*5E
$GNGGA,161442.80,4220.3587881,N,07105.0836724,W,5,14,0.9,6.700,M,-28.722,M,0.8,0061*67
$GPGSA,A,3,10,15,18,23,24,32,,,,,,,1.8,0.9,1.6*3F
$GLGSA,A,3,65,66,72,75,81,88,,,,,,,1.8,0.9,1.6*24
$GAGSA,A,3,07,26,,,,,,,,,,,1.8,0.9,1.6*27
$GBGSA,A,3,,,,,,,,,,,,,1.8,0.9,1.6*27
$GPGSV,2,1,06,10,40,307,40,15,41,062,38,18,49,198,39,23,77,346,41*7C
$GPGSV,2,2,06,24,63,098,40,32,18,253,36,,,,,,,,*70
$GLGSV,2,1,06,65,60,343,42,66,23,283,41,72,31,062,38,75,31,119,38*60
$GLGSV,2,2,06,81,32,314,42,88,42,243,43,,,,,,,,*6F
$GAGSV,1,1,02,07,78,324,39,26,60,248,39,,,,,,,,*6B
$GNVTG,310.13,T,,M,2.27,N,4.21,K,D*26
$GNGST,161442.80,1.967,,,,0.051,0.052,0.113*62
$GNZDA,161442.80,10,10,2023,00,00*77
$GNRMC,161443.80,A,4220.3592625,N,07105.0843686,W,2.63,302.60,101023,,,D*57
$GNGGA,161443.80,4220.3592625,N,07105.0843686,W,5,15,0.9,6.666,M,-28.722,M,0.8,0061*69
$GPGSA,A,3,10,15,18,23,24,32,,,,,,,2.0,0.9,1.8*3A
$GLGSA,A,3,65,66,72,75,81,88,,,,,,,2.0,0.9,1.8*21
$GAGSA,A,3,07,08,26,,,,,,,,,,2.0,0.9,1.8*2A
$GBGSA,A,3,,,,,,,,,,,,,2.0,0.9,1.8*22
$GPGSV,2,1,06,10,40,307,41,15,41,062,38,18,49,198,40,23,77,346,40*72
$GPGSV,2,2,06,24,63,098,40,32,18,253,36,,,,,,,,*70
$GLGSV,2,1,06,65,60,343,42,66,23,283,44,72,31,062,38,75,31,119,38*65
$GLGSV,2,2,06,81,32,314,42,88,42,243,45,,,,,,,,*69
$GAGSV,1,1,03,07,78,325,39,08,35,058,35,26,60,248,39,,,,*5E
$GNVTG,302.60,T,,M,2.63,N,4.87,K,D*2D
$GNGST,161443.80,2.185,,,,0.050,0.052,0.112*64
$GNZDA,161443.80,10,10,2023,00,00*76
$GNRMC,161444.80,A,4220.3597203,N,07105.0850077,W,2.78,306.33,101023,,,D*57
$GNGGA,161444.80,4220.3597203,N,07105.0850077,W,5,14,0.9,6.649,M,-28.722,M,0.8,0061*6D
$GPGSA,A,3,10,15,18,23,24,,,,,,,,2.0,0.9,1.8*3B
$GLGSA,A,3,65,66,72,75,81,88,,,,,,,2.0,0.9,1.8*21
$GAGSA,A,3,07,08,26,,,,,,,,,,2.0,0.9,1.8*2A
$GBGSA,A,3,,,,,,,,,,,,,2.0,0.9,1.8*22
$GPGSV,2,1,05,10,40,307,41,15,41,062,38,18,49,198,40,23,77,346,40*71
$GPGSV,2,2,05,24,63,098,40,,,,,,,,,,,,*4A
$GLGSV,2,1,06,65,60,343,42,66,23,283,43,72,31,062,37,75,32,119,38*6E
$GLGSV,2,2,06,81,32,314,43,88,42,243,45,,,,,,,,*68
$GAGSV,1,1,03,07,78,325,39,08,35,058,35,26,60,248,39,,,,*5E
$GNVTG,306.33,T,,M,2.78,N,5.15,K,D*2F
$GNGST,161444.80,2.200,,,,0.050,0.052,0.110*6F
$GNZDA,161444.80,10,10,2023,00,00*71
$GNRMC,161445.80,A,4220.3602019,N,07105.0856736,W,2.40,308.73,101023,,,D*55
$GNGGA,161445.80,4220.3602019,N,07105.0856736,W,5,13,0.9,6.653,M,-28.722,M,0.8,0061*62
$GPGSA,A,3,10,15,18,23,24,,,,,,,,2.0,0.9,1.8*3B
$GLGSA,A,3,65,66,72,75,81,88,,,,,,,2.0,0.9,1.8*21
$GAGSA,A,3,07,26,,,,,,,,,,,2.0,0.9,1.8*22
$GBGSA,A,3,,,,,,,,,,,,,2.0,0.9,1.8*22
$GPGSV,2,1,05,10,40,307,41,15,41,062,38,18,49,198,38,23,77,346,41*7F
$GPGSV,2,2,05,24,63,098,40,,,,,,,,,,,,*4A
$GLGSV,2,1,06,65,60,343,43,66,23,283,44,72,31,062,38,75,32,119,36*69
$GLGSV,2,2,06,81,32,314,44,88,42,243,44,,,,,,,,*6E
$GAGSV,1,1,02,07,78,325,39,26,60,248,39,,,,,,,,*6A
$GNVTG,308.73,T,,M,2.40,N,4.45,K,D*2A
$GNGST,161445.80,2.270,,,,0.049,0.051,0.109*6A
$GNZDA,161445.80,10,10,2023,00,00*70
$GNRMC,161446.80,A,4220.3606899,N,07105.0863480,W,2.26,314.72,101023,,,D*56
$GNGGA,161446.80,4220.3606899,N,07105.0863480,W,5,12,1.1,6.643,M,-28.722,M,0.8,0061*64
$GPGSA,A,3,10,15,18,23,24,,,,,,,,2.3,1.1,2.0*3A
$GLGSA,A,3,65,66,72,81,88,,,,,,,,2.3,1.1,2.0*22
$GAGSA,A,3,07,26,,,,,,,,,,,2.3,1.1,2.0*23
$GBGSA,A,3,,,,,,,,,,,,,2.3,1.1,2.0*23
$GPGSV,2,1,05,10,40,307,42,15,41,062,37,18,49,198,38,23,77,346,41*73
$GPGSV,2,2,05,24,63,098,39,,,,,,,,,,,,*44
$GLGSV,2,1,05,65,60,343,41,66,23,283,43,72,31,062,38,81,32,314,44*6E
$GLGSV,2,2,05,88,42,243,44,,,,,,,,,,,,*53
$GAGSV,1,1,02,07,78,325,39,26,60,248,39,,,,,,,,*6A
$GNVTG,314.72,T,,M,2.26,N,4.18,K,D*2E
$GNGST,161446.80,2.371,,,,0.049,0.051,0.108*68
$GNZDA,161446.80,10,10,2023,00,00*73
$GNRMC,161447.80,A,4220.3611752,N,07105.0870362,W,2.58,322.28,101023,,,D*53
$GNGGA,161447.80,4220.3611752,N,07105.0870362,W,5,14,0.9,6.582,M,-28.722,M,0.8,0061*63
$GPGSA,A,3,10,15,18,23,24,32,,,,,,,1.8,0.9,1.6*3F
$GLGSA,A,3,65,66,72,75,81,88,,,,,,,1.8,0.9,1.6*24
$GAGSA,A,3,07,26,,,,,,,,,,,1.8,0.9,1.6*27
$GBGSA,A,3,,,,,,,,,,,,,1.8,0.9,1.6*27
$GPGSV,2,1,06,10,40,307,41,15,41,062,37,18,49,198,40,23,77,346,41*7C
$GPGSV,2,2,06,24,63,098,40,32,18,253,39,,,,,,,,*7F
$GLGSV,2,1,06,65,60,343,41,66,23,283,43,72,31,062,43,75,32,119,40*61
$GLGSV,2,2,06,81,32,314,44,88,42,243,47,,,,,,,,*6D
$GAGSV,1,1,02,07,78,325,39,26,60,248,39,,,,,,,,*6A
$GNVTG,322.28,T,,M,2.58,N,4.78,K,D*2B
$GNGST,161447.80,2.262,,,,0.049,0.051,0.107*65
$GNZDA,161447.80,10,10,2023,00,00*72
$GNRMC,161448.80,A,4220.3616654,N,07105.0877561,W,2.80,319.64,101023,,,D*5B
$GNGGA,161448.80,4220.3616654,N,07105.0877561,W,5,16,0.9,6.561,M,-28.722,M,0.8,0061*61
$GPGSA,A,3,10,15,18,23,24,32,,,,,,,1.8,0.9,1.6*3F
$GLGSA,A,3,65,66,72,74,75,81,88,,,,,,1.8,0.9,1.6*27
$GAGSA,A,3,07,08,26,,,,,,,,,,1.8,0.9,1.6*2F
$GBGSA,A,3,,,,,,,,,,,,,1.8,0.9,1.6*27
$GPGSV,2,1,06,10,40,307,42,15,41,062,38,18,49,198,39,23,77,346,42*7D
$GPGSV,2,2,06,24,63,098,41,32,18,253,38,,,,,,,,*7F
$GLGSV,2,1,07,65,60,343,42,66,23,283,42,72,31,062,39,74,30,054,36*65
$GLGSV,2,2,07,75,32,119,40,81,32,314,41,88,42,243,46,,,,*56
$GAGSV,1,1,03,07,78,325,40,08,35,058,39,26,60,248,40,,,,*52
$GNVTG,319.64,T,,M,2.80,N,5.19,K,D*28
$GNGST,161448.80,2.378,,,,0.048,0.050,0.105*62
$GNZDA,161448.80,10,10,2023,00,00*7D
$GNRMC,161449.80,A,4220.3621047,N,07105.0884322,W,2.30,314.99,101023,,,D*53
$GNGGA,161449.80,4220.3621047,N,07105.0884322,W,5,15,0.9,6.559,M,-28.722,M,0.8,0061*65
$GPGSA,A,3,10,15,18,23,24,32,,,,,,,1.8,0.9,1.6*3F
$GLGSA,A,3,65,66,72,75,81,88,,,,,,,1.8,0.9,1.6*24
$GAGSA,A,3,07,08,26,,,,,,,,,,1.8,0.9,1.6*2F
$GBGSA,A,3,,,,,,,,,,,,,1.8,0.9,1.6*27
$GPGSV,2,1,06,10,40,307,41,15,41,062,39,18,49,198,37,23,77,346,41*72
$GPGSV,2,2,06,24,63,098,39,32,18,253,36,,,,,,,,*7E
$GLGSV,2,1,06,65,60,343,41,66,23,283,41,72,31,062,41,75,32,119,39*6F
$GLGSV,2,2,06,81,32,314,40,88,42,243,43,,,,,,,,*6D
$GAGSV,1,1,03,07,78,325,38,08,35,058,36,26,60,248,38,,,,*5D
$GNVTG,314.99,T,,M,2.30,N,4.25,K,D*22
$GNGST,161449.80,2.372,,,,0.048,0.050,0.104*68
$GNZDA,161449.80,10,10,2023,00,00*7C
$GNRMC,161450.80,A,4220.3625299,N,07105.0890908,W,2.21,314.24,101023,,,D*5F
$GNGGA,161450.80,4220.3625299,N,07105.0890908,W,5,15,0.9,6.609,M,-28.722,M,0.8,0061*69
$GPGSA,A,3,10,15,18,23,24,32,,,,,,,1.8,0.9,1.6*3F
$GLGSA,A,3,65,66,72,75,81,88,,,,,,,1.8,0.9,1.6*24
$GAGSA,A,3,07,08,26,,,,,,,,,,1.8,0.9,1.6*2F
$GBGSA,A,3,,,,,,,,,,,,,1.8,0.9,1.6*27
$GPGSV,2,1,06,10,40,307,39,15,41,062,40,18,49,198,37,23,77,346,40*72
$GPGSV,2,2,06,24,63,098,40,32,18,253,35,,,,,,,,*73
$GLGSV,2,1,06,65,60,343,38,66,23,283,36,72,31,062,38,75,32,119,40*61
$GLGSV,2,2,06,81,32,314,38,88,42,243,39,,,,,,,,*6F
$GAGSV,1,1,03,07,78,325,38,08,35,058,35,26,60,248,37,,,,*51
$GNVTG,314.24,T,,M,2.21,N,4.09,K,D*2A
$GNGST,161450.80,2.357,,,,0.047,0.050,0.103*6F
$GNZDA,161450.80,10,10,2023,00,00*74
$GNRMC,161451.80,A,4220.3629921,N,07105.0897485,W,2.35,308.48,101023,,,D*57
$GNGGA,161451.80,4220.3629921,N,07105.0897485,W,5,15,0.9,6.579,M,-28.722,M,0.8,0061*67
$GPGSA,A,3,10,15,18,23,24,32,,,,,,,1.8,0.9,1.6*3F
$GLGSA,A,3,65,66,72,75,81,88,,,,,,,1.8,0.9,1.6*24
$GAGSA,A,3,07,08,26,,,,,,,,,,1.8,0.9,1.6*2F
$GBGSA,A,3,,,,,,,,,,,,,1.8,0.9,1.6*27
$GPGSV,2,1,06,10,40,307,39,15,41,062,41,18,49,198,37,23,77,346,42*71
$GPGSV,2,2,06,24,63,098,41,32,18,253,37,,,,,,,,*70
$GLGSV,2,1,06,65,60,343,42,66,23,283,38,72,31,062,40,75,32,119,40*6D
$GLGSV,2,2,06,81,32,314,42,88,42,243,41,,,,,,,,*6D
$GAGSV,1,1,03,07,78,325,39,08,35,058,38,26,59,248,37,,,,*57
$GNVTG,308.48,T,,M,2.35,N,4.35,K,D*27
$GNGST,161451.80,2.170,,,,0.047,0.050,0.102*68
$GNZDA,161451.80,10,10,2023,00,00*75
$GNRMC,161452.80,A,4220.3634637,N,07105.0904520,W,3.12,309.61,101023,,,D*5B
$GNGGA,161452.80,4220.3634637,N,07105.0904520,W,5,15,0.9,6.536,M,-28.722,M,0.8,0061*6E
$GPGSA,A,3,10,15,18,23,24,32,,,,,,,1.8,0.9,1.6*3F
$GLGSA,A,3,65,66,72,75,81,88,,,,,,,1.8,0.9,1.6*24
$GAGSA,A,3,07,08,26,,,,,,,,,,1.8,0.9,1.6*2F
$GBGSA,A,3,,,,,,,,,,,,,1.8,0.9,1.6*27
$GPGSV,2,1,06,10,40,307,41,15,41,062,43,18,49,198,41,23,77,346,43*7C
$GPGSV,2,2,06,24,63,098,45,32,18,253,39,,,,,,,,*7A
$GLGSV,2,1,06,65,60,343,43,66,23,283,38,72,31,062,43,75,32,119,42*6D
$GLGSV,2,2,06,81,32,314,42,88,42,243,43,,,,,,,,*6F
$GAGSV,1,1,03,07,78,325,41,08,35,058,40,26,59,248,40,,,,*57
$GNVTG,309.61,T,,M,3.12,N,5.78,K,D*21
$GNGST,161452.80,2.218,,,,0.047,0.049,0.101*6D
$GNZDA,161452.80,10,10,2023,00,00*76
$GNRMC,161453.80,A,4220.3639749,N,07105.0910775,W,2.66,312.65,101023,,,D*54
$GNGGA,161453.80,4220.3639749,N,07105.0910775,W,5,16,0.9,6.546,M,-28.722,M,0.8,0061*69
$GPGSA,A,3,10,15,18,23,24,32,,,,,,,1.8,0.9,1.6*3F
$GLGSA,A,3,65,66,72,75,81,88,,,,,,,1.8,0.9,1.6*24
$GAGSA,A,3,07,08,13,26,,,,,,,,,1.8,0.9,1.6*2D
